Name,Height,Zone,Easting,Northing,Latitude,Longitude,Points
"Achilles, Mount",1363,55G,4 15 135,53 65 355,-41.85916,145.97754,3
"Acropolis, The",1480,55G,4 22 195,53 56 995,-41.93518,146.06148,4
Adamsons Peak,1225,55G,4 85 800,52 00 280,-43.3502,146.82479,3
"Aldebaran, Mount",1107,55G,4 46 630,52 19 270,-43.17745,146.34333,3
"Anne, Mount",1423,55G,4 53 010,52 45 375,-42.94281,146.42403,6
Barn Bluff,1559,55G,4 10 420,53 80 305,-41.72401,145.92299,4
Ben Nevis,1368,55G,5 52 325,54 15 565,-41.40976,147.62606,2
"Berry, Mount",651,55G,4 20 730,52 05 110,-43.30267,146.02265,3
"Bisdee, Mount",1005,55G,4 74 410,51 91 260,-43.43112,146.68383,4
Black Bluff,1339,55G,4 12 670,54 10 640,-41.45107,145.95446,2
"Bobs, Mount",1111,55G,4 67 300,52 06 390,-43.29461,146.59688,5
Bonds Craig,1260,55G,4 40 750,52 90 680,-42.53399,146.27851,3
"Byron, Mount",1375,55G,4 22 155,53 46 485,-42.02982,146.05961,2
Castle Crag/Falling Mtn,1482,55G,4 25 150,53 59 770,-41.91047,146.09747,4
Centre Star,943,55G,4 37 170,52 86 510,-42.57126,146.23446,3
"Citadel, The",929,55G,4 23 880,52 43 620,-42.95626,146.06677,3
Clear Hill,1198,55G,4 40 370,52 74 950,-42.67561,146.27224,2
Clumner Bluff,1458,55G,4 38 100,53 76 930,-41.75705,146.2554,2
Clytemnestra,1271,55G,4 02 550,53 17 820,-42.28575,145.81802,4
Conical Mountain,1124,55G,4 30 670,52 91 130,-42.5291,146.15583,2
Coronation Peak,1054,55G,4 19 370,52 48 440,-42.9124,146.01218,6
"Counsel, Mount",802,55G,4 38 080,51 89 130,-43.44817,146.23474,3
Cradle Mountain,1545,55G,4 12 730,53 84 690,-41.68478,145.9514,4
"Curly, Mount",1065,55G,4 33 000,52 91 190,-42.52877,146.18421,4
"Cuvier, Mount",1378,55G,4 19 260,53 46 970,-42.02516,146.02471,3
Diamond Peak,1066,55G,4 21 740,52 98 430,-42.46252,146.04811,8
East Portal,1008,55G,4 54 600,52 14 310,-43.22263,146.44098,3
Eldon Bluff,1361,55G,4 02 770,53 52 170,-41.97647,145.82642,5
Eldon Peak,1439,55G,3 94 980,53 52 350,-41.97385,145.73244,5
Federation Peak,1225,55G,4 57 460,52 08 910,-43.27142,146.47578,10
"Field West, Mount",1434,55G,4 60 240,52 77 235,-42.65632,146.51489,3
Frankland Peak,1083,55G,4 30 470,52 40 260,-42.98714,146.14714,3
Frenchmans Cap,1446,55G,4 03 540,53 19 610,-42.26975,145.83033,7
"Gables, The",1058,55G,4 55 850,52 11 380,-43.24909,146.45614,2
"Gell, Mount",1447,55G,4 19 460,53 32 770,-42.15306,146.02517,4
"Geryon (North), Mount",1516,55G,4 21 625,53 57 795,-41.92792,146.05471,5
"Geryon (South), Mount",1509,55G,4 21 625,53 57 630,-41.9294,146.05469,8
"Gould, Mount",1491,55G,4 21 335,53 52 620,-41.97449,146.05053,4
Goulds Sugarloaf,1425,55G,4 17 240,53 42 310,-42.06692,145.99965,2
Greystone Bluff,1019,55G,4 23 020,52 30 310,-43.07601,146.05439,4
"Guardians, The",1394,55G,4 19 065,53 52 730,-41.97327,146.02315,3
Hartz Peak,1254,55G,4 81 160,52 11 900,-43.24547,146.76793,2
"Hayes, Mount",1119,55G,4 38 800,52 24 260,-43.13193,146.24755,3
High Dome,1366,55G,4 11 160,53 50 940,-41.98854,145.92748,5
"Hobhouse, Mount",1222,55G,4 38 080,53 15 465,-42.31059,146.24867,1
"Hopetoun, Mount",1087,55G,4 59 660,52 11 690,-43.24651,146.50309,4
"Hugel, Mount",1403,55G,4 24 390,53 38 210,-42.10456,146.08554,2
"Humboldt, Mount",1069,55G,4 16 090,52 86 910,-42.56566,145.97771,6
"Hyperion, Mount",1480,55G,4 20 070,53 59 200,-41.91511,146.03615,3
"Ida, Mount",1239,55G,4 30 700,53 47 690,-42.01977,146.16297,3
Innes High Rocky,1083,55G,4 29 250,52 96 970,-42.47639,146.13927,4
Ironbound Range,1061,55G,4 57 190,51 83 590,-43.49939,146.47047,3
"Jerusalem, Mount",1459,55G,4 43 870,53 69 905,-41.82075,146.32414,2
"Jukes, Mount",1168,55G,3 82 950,53 30 040,-42.17303,145.58282,3
King Davids Peak,1499,55G,4 40 885,53 70 370,-41.81634,146.28825,2
"King William I, Mount",1324,55G,4 28 930,53 24 960,-42.2243,146.13882,2
"King William II, Mount",1361,55G,4 29 300,53 16 120,-42.30394,146.14223,3
"La Perouse, Mount",1158,55G,4 79 200,51 83 170,-43.50411,146.7427,4
Little Horn,1355,55G,4 13 565,53 85 715,-41.67564,145.96158,1
Loddon Bluff,1220,55G,4 25 480,53 19 300,-42.27495,146.09629,3
"Lot, Mount",1156,55G,4 55 050,52 44 560,-42.95027,146.44897,3
Lots Wife,1089,55G,4 56 000,52 44 840,-42.94781,146.46063,3
"Louisa, Mount",931,55G,4 51 810,51 88 490,-43.45495,146.40436,4
"Maconachie, Mount",958,55G,4 25 670,52 32 880,-43.05314,146.08728,3
Macs Mountain,1413,55G,4 15 745,53 56 825,-41.93605,145.98367,3
"Manfred, Mount",1382,55G,4 18 980,53 48 890,-42.00784,146.02159,3
"Massif, Mount",1514,55G,4 22 375,53 60 255,-41.90584,146.06408,4
Mensa Moor,1365,55G,5 53 570,53 96 300,-41.5832,147.64266,1
Mother Cummings Peak,1190,55G,4 61 220,53 87 525,-41.66309,146.53419,0
"Mueller, Mount",1245,55G,4 55 540,52 63 980,-42.77543,146.45651,2
"Murchison, Mount",1275,55G,3 85 200,53 70 500,-41.80906,145.61796,3
"Nereus, Mount",1184,55G,4 11 780,53 58 460,-41.92089,145.93609,4
Nevada Peak,1390,55G,4 70 590,52 48 020,-42.91987,146.63965,2
"Norold, Mount",978,55G,4 39 920,52 10 410,-43.25672,146.25981,3
"Oakleigh, Mount",1286,55G,4 20 005,53 72 030,-41.79956,146.0371,3
"Olympus (North), Mount",1472,55G,4 24 980,53 45 655,-42.03757,146.09362,3
"Ossa, Mount",1614,55G,4 19 750,53 64 125,-41.87072,146.03296,4
"Pelion East, Mount",1461,55G,4 22 610,53 65 655,-41.85723,146.06762,2
"Pelion West, Mount",1560,55G,4 15 110,53 68 400,-41.83174,145.97767,5
Perrins Bluff,1420,55G,4 14 380,53 63 440,-41.87633,145.96816,3
Philps Peak,1282,55G,4 06 330,53 17 880,-42.28567,145.86387,4
"Picton, Mount",1327,55G,4 68 065,52 21 640,-43.15732,146.6072,3
"Pillinger, Mount",1280,55G,4 27 490,53 70 360,-41.81532,146.12699,2
Pindars Peak,1230,55G,4 74 660,51 82 040,-43.51414,146.68648,5
Precipitous Bluff,1145,55G,4 67 880,51 87 860,-43.46148,146.60295,9
Procyon Peak,1136,55G,4 39 840,52 23 670,-43.13732,146.26027,3
Propsting Range,894,55G,4 09 540,52 31 700,-43.06201,145.88906,2
Quamby Bluff,1228,55G,4 74 790,53 88 730,-41.65278,146.69724,2
Reeds Peak,1290,55G,4 40 760,52 89 050,-42.54867,146.27846,3
"Robinson, Mount",887,55G,4 31 640,52 23 660,-43.13672,146.15945,3
"Rogoona, Mount",1350,55G,4 33 405,53 62 065,-41.89054,146.19726,2
"Roland, Mount",1233,55G,4 38 690,54 09 750,-41.4615,146.26586,2
"Rugby, Mount",771,55G,4 28 010,52 02 360,-43.32816,146.11204,3
"Saddleback, Mount",1256,55G,5 63 565,54 16 780,-41.39801,147.7604,2
"Sarah Jane, Mount",1290,55G,4 54 580,52 41 380,-42.97888,146.44295,3
Schnells Ridge,1087,55G,4 52 760,52 36 340,-43.02415,146.4202,2
Secheron Peak,1068,55G,4 31 100,52 40 140,-42.98828,146.15485,2
Sentinel Range,974,55G,4 38 140,52 53 390,-42.86958,146.24266,2
"Sirius, Mount",1151,55G,4 40 180,52 22 550,-43.14743,146.26433,3
Snowy South,1398,55G,4 72 120,52 45 510,-42.94253,146.65827,2
"Solitary, Mount",852,55G,4 38 890,52 43 680,-42.95707,146.25078,3
"Sorell, Mount",1144,55G,3 79 800,53 18 990,-42.27204,145.54241,3
"Spires, The",1122,55G,4 28 630,52 93 690,-42.50587,146.13132,6
"Spurling, Mount",1280,55G,4 31 130,53 52 480,-41.97667,146.16872,1
St Patricks Head,683,55G,6 03 030,53 96 945,-41.57254,148.23581,1
St Valentines Peak,1106,55G,3 95 930,54 20 940,-41.35632,145.75586,1
Stacks Bluff,1527,55G,5 57 340,53 91 510,-41.62608,147.68835,2
Stepped Hills,1111,55G,4 41 720,52 79 440,-42.63528,146.28917,3
"Story, Mount",420,55G,6 05 960,53 13 650,-42.32218,148.28593,2
Strzelecki Peaks,782,55G,5 91 070,55 49 280,-40.20194,148.07005,3
"Thetis, Mount",1482,55G,4 16 975,53 65 105,-41.86161,145.99967,3
"Thumbs, The",1204,55G,4 47 095,52 74 985,-42.67579,146.35431,3
Twin Spires (North),1406,55G,4 26 810,53 63 090,-41.88073,146.1179,2
Tyenna Peak,1320,55G,4 63 255,52 72 190,-42.7019,146.55135,2
"Tyndall, Mount",1179,55G,3 83 200,53 56 650,-41.93347,145.59115,2
"Victoria Cross, Mount",1120,55G,4 72 520,51 88 150,-43.45905,146.66032,4
"Victoria, Mount",1213,55G,5 70 340,54 23 935,-41.333,147.84061,2
Walled Mountain,1431,55G,4 18 740,53 56 460,-41.93965,146.01974,2
"Wedge, Mount",1147,55G,4 42 560,52 56 120,-42.84534,146.29705,2
"Weld, Mount",1345,55G,4 65 555,52 38 620,-43.00431,146.57738,4
West Portal,1181,55G,4 52 140,52 17 360,-43.19502,146.41096,4
"Wright, Mount",1112,55G,4 45 455,52 81 070,-42.62088,146.33488,3
Wylds Craig,1339,55G,4 49 895,52 97 410,-42.47404,146.39045,3
"Wylly, Mount",1110,55G,4 72 440,51 85 920,-43.47913,146.65922,3
,,,,,,,
,,,,,,,
,,,,,,,
,,,,,,,
,,,,,,,
,,,,,,,
,,,,,,,
,,,,,,,
,,,,,,,
,,,,,,,
,,,,,,,
,,,,,,,
,,,,,,,
,,,,,,,
,,,,,,,
,,,,,,,
,,,,,,,
,,,,,,,
,,,,,,,
,,,,,,,
,,,,,,,
,,,,,,,
,,,,,,,
,,,,,,,
,,,,,,,
,,,,,,,
,,,,,,,
,,,,,,,
,,,,,,,
,,,,,,,
,,,,,,,
,,,,,,,
,,,,,,,
,,,,,,,
,,,,,,,
,,,,,,,
,,,,,,,
,,,,,,,
,,,,,,,
,,,,,,,
,,,,,,,
,,,,,,,
,,,,,,,
,,,,,,,
,,,,,,,
,,,,,,,
,,,,,,,
,,,,,,,
,,,,,,,
,,,,,,,
,,,,,,,
,,,,,,,
,,,,,,,
,,,,,,,
,,,,,,,
,,,,,,,
,,,,,,,
,,,,,,,
,,,,,,,
,,,,,,,
,,,,,,,
,,,,,,,
,,,,,,,
,,,,,,,
,,,,,,,
,,,,,,,
,,,,,,,
,,,,,,,
,,,,,,,
,,,,,,,
,,,,,,,
,,,,,,,
,,,,,,,
,,,,,,,
,,,,,,,
,,,,,,,
,,,,,,,
,,,,,,,
,,,,,,,
,,,,,,,
,,,,,,,
,,,,,,,
,,,,,,,
,,,,,,,
,,,,,,,
,,,,,,,
,,,,,,,
,,,,,,,
,,,,,,,
,,,,,,,
,,,,,,,
,,,,,,,
,,,,,,,
,,,,,,,
,,,,,,,
,,,,,,,
,,,,,,,
,,,,,,,
,,,,,,,
,,,,,,,
,,,,,,,
,,,,,,,
,,,,,,,
,,,,,,,
,,,,,,,
,,,,,,,
,,,,,,,
,,,,,,,
,,,,,,,
,,,,,,,
,,,,,,,
,,,,,,,
,,,,,,,
,,,,,,,
,,,,,,,
,,,,,,,
,,,,,,,
,,,,,,,
,,,,,,,
,,,,,,,
,,,,,,,
,,,,,,,
,,,,,,,
,,,,,,,
,,,,,,,
,,,,,,,
,,,,,,,
,,,,,,,
,,,,,,,
,,,,,,,
,,,,,,,
,,,,,,,
,,,,,,,
,,,,,,,
,,,,,,,
,,,,,,,
,,,,,,,
,,,,,,,
,,,,,,,
,,,,,,,
,,,,,,,
,,,,,,,
,,,,,,,
,,,,,,,
,,,,,,,
,,,,,,,
,,,,,,,
,,,,,,,
,,,,,,,
,,,,,,,
,,,,,,,
,,,,,,,
,,,,,,,
,,,,,,,
,,,,,,,
,,,,,,,
,,,,,,,
,,,,,,,
,,,,,,,
,,,,,,,
,,,,,,,
,,,,,,,
,,,,,,,
,,,,,,,
,,,,,,,
,,,,,,,
,,,,,,,
,,,,,,,
,,,,,,,
,,,,,,,
,,,,,,,
,,,,,,,
,,,,,,,
,,,,,,,
,,,,,,,
,,,,,,,
,,,,,,,
,,,,,,,
,,,,,,,
,,,,,,,
,,,,,,,
,,,,,,,
,,,,,,,
,,,,,,,
,,,,,,,
,,,,,,,
,,,,,,,
,,,,,,,
,,,,,,,
,,,,,,,
,,,,,,,
,,,,,,,
,,,,,,,
,,,,,,,
,,,,,,,
,,,,,,,
,,,,,,,
,,,,,,,
,,,,,,,
,,,,,,,
,,,,,,,
,,,,,,,
,,,,,,,
,,,,,,,
,,,,,,,
,,,,,,,
,,,,,,,
,,,,,,,
,,,,,,,
,,,,,,,
,,,,,,,
,,,,,,,
,,,,,,,
,,,,,,,
,,,,,,,
,,,,,,,
,,,,,,,
,,,,,,,
,,,,,,,
,,,,,,,
,,,,,,,
,,,,,,,
,,,,,,,
,,,,,,,
,,,,,,,
,,,,,,,
,,,,,,,
,,,,,,,
,,,,,,,
,,,,,,,
,,,,,,,
,,,,,,,
,,,,,,,
,,,,,,,
,,,,,,,
,,,,,,,
,,,,,,,
,,,,,,,
,,,,,,,
,,,,,,,
,,,,,,,
,,,,,,,
,,,,,,,
,,,,,,,
,,,,,,,
,,,,,,,
,,,,,,,
,,,,,,,
,,,,,,,
,,,,,,,
,,,,,,,
,,,,,,,
,,,,,,,
,,,,,,,
,,,,,,,
,,,,,,,
,,,,,,,
,,,,,,,
,,,,,,,
,,,,,,,
,,,,,,,
,,,,,,,
,,,,,,,
,,,,,,,
,,,,,,,
,,,,,,,
,,,,,,,
,,,,,,,
,,,,,,,
,,,,,,,
,,,,,,,
,,,,,,,
,,,,,,,
,,,,,,,
,,,,,,,
,,,,,,,
,,,,,,,
,,,,,,,
,,,,,,,
,,,,,,,
,,,,,,,
,,,,,,,
,,,,,,,
,,,,,,,
,,,,,,,
,,,,,,,
,,,,,,,
,,,,,,,
,,,,,,,
,,,,,,,
,,,,,,,
,,,,,,,
,,,,,,,
,,,,,,,
,,,,,,,
,,,,,,,
,,,,,,,
,,,,,,,
,,,,,,,
,,,,,,,
,,,,,,,
,,,,,,,
,,,,,,,
,,,,,,,
,,,,,,,
,,,,,,,
,,,,,,,
,,,,,,,
,,,,,,,
,,,,,,,
,,,,,,,
,,,,,,,
,,,,,,,
,,,,,,,
,,,,,,,
,,,,,,,
,,,,,,,
,,,,,,,
,,,,,,,
,,,,,,,
,,,,,,,
,,,,,,,
,,,,,,,
,,,,,,,
,,,,,,,
,,,,,,,
,,,,,,,
,,,,,,,
,,,,,,,
,,,,,,,
,,,,,,,
,,,,,,,
,,,,,,,
,,,,,,,
,,,,,,,
,,,,,,,
,,,,,,,
,,,,,,,
,,,,,,,
,,,,,,,
,,,,,,,
,,,,,,,
,,,,,,,
,,,,,,,
,,,,,,,
,,,,,,,
,,,,,,,
,,,,,,,
,,,,,,,
,,,,,,,
,,,,,,,
,,,,,,,
,,,,,,,
,,,,,,,
,,,,,,,
,,,,,,,
,,,,,,,
,,,,,,,
,,,,,,,
,,,,,,,
,,,,,,,
,,,,,,,
,,,,,,,
,,,,,,,
,,,,,,,
,,,,,,,
,,,,,,,
,,,,,,,
,,,,,,,
,,,,,,,
,,,,,,,
,,,,,,,
,,,,,,,
,,,,,,,
,,,,,,,
,,,,,,,
,,,,,,,
,,,,,,,
,,,,,,,
,,,,,,,
,,,,,,,
,,,,,,,
,,,,,,,
,,,,,,,
,,,,,,,
,,,,,,,
,,,,,,,
,,,,,,,
,,,,,,,
,,,,,,,
,,,,,,,
,,,,,,,
,,,,,,,
,,,,,,,
,,,,,,,
,,,,,,,
,,,,,,,
,,,,,,,
,,,,,,,
,,,,,,,
,,,,,,,
,,,,,,,
,,,,,,,
,,,,,,,
,,,,,,,
,,,,,,,
,,,,,,,
,,,,,,,
,,,,,,,
,,,,,,,
,,,,,,,
,,,,,,,
,,,,,,,
,,,,,,,
,,,,,,,
,,,,,,,
,,,,,,,
,,,,,,,
,,,,,,,
,,,,,,,
,,,,,,,
,,,,,,,
,,,,,,,
,,,,,,,
,,,,,,,
,,,,,,,
,,,,,,,
,,,,,,,
,,,,,,,
,,,,,,,
,,,,,,,
,,,,,,,
,,,,,,,
,,,,,,,
,,,,,,,
,,,,,,,
,,,,,,,
,,,,,,,
,,,,,,,
,,,,,,,
,,,,,,,
,,,,,,,
,,,,,,,
,,,,,,,
,,,,,,,
,,,,,,,
,,,,,,,
,,,,,,,
,,,,,,,
,,,,,,,
,,,,,,,
,,,,,,,
,,,,,,,
,,,,,,,
,,,,,,,
,,,,,,,
,,,,,,,
,,,,,,,
,,,,,,,
,,,,,,,
,,,,,,,
,,,,,,,
,,,,,,,
,,,,,,,
,,,,,,,
,,,,,,,
,,,,,,,
,,,,,,,
,,,,,,,
,,,,,,,
,,,,,,,
,,,,,,,
,,,,,,,
,,,,,,,
,,,,,,,
,,,,,,,
,,,,,,,
,,,,,,,
,,,,,,,
,,,,,,,
,,,,,,,
,,,,,,,
,,,,,,,
,,,,,,,
,,,,,,,
,,,,,,,
,,,,,,,
,,,,,,,
,,,,,,,
,,,,,,,
,,,,,,,
,,,,,,,
,,,,,,,
,,,,,,,
,,,,,,,
,,,,,,,
,,,,,,,
,,,,,,,
,,,,,,,
,,,,,,,
,,,,,,,
,,,,,,,
,,,,,,,
,,,,,,,
,,,,,,,
,,,,,,,
,,,,,,,
,,,,,,,
,,,,,,,
,,,,,,,
,,,,,,,
,,,,,,,
,,,,,,,
,,,,,,,
,,,,,,,
,,,,,,,
,,,,,,,
,,,,,,,
,,,,,,,
,,,,,,,
,,,,,,,
,,,,,,,
,,,,,,,
,,,,,,,
,,,,,,,
,,,,,,,
,,,,,,,
,,,,,,,
,,,,,,,
,,,,,,,
,,,,,,,
,,,,,,,
,,,,,,,
,,,,,,,
,,,,,,,
,,,,,,,
,,,,,,,
,,,,,,,
,,,,,,,
,,,,,,,
,,,,,,,
,,,,,,,
,,,,,,,
,,,,,,,
,,,,,,,
,,,,,,,
,,,,,,,
,,,,,,,
,,,,,,,
,,,,,,,
,,,,,,,
,,,,,,,
,,,,,,,
,,,,,,,
,,,,,,,
,,,,,,,
,,,,,,,
,,,,,,,
,,,,,,,
,,,,,,,
,,,,,,,
,,,,,,,
,,,,,,,
,,,,,,,
,,,,,,,
,,,,,,,
,,,,,,,
,,,,,,,
,,,,,,,
,,,,,,,
,,,,,,,
,,,,,,,
,,,,,,,
,,,,,,,
,,,,,,,
,,,,,,,
,,,,,,,
,,,,,,,
,,,,,,,
,,,,,,,
,,,,,,,
,,,,,,,
,,,,,,,
,,,,,,,
,,,,,,,
,,,,,,,
,,,,,,,
,,,,,,,
,,,,,,,
,,,,,,,
,,,,,,,
,,,,,,,
,,,,,,,
,,,,,,,
,,,,,,,
,,,,,,,
,,,,,,,
,,,,,,,
,,,,,,,
,,,,,,,
,,,,,,,
,,,,,,,
,,,,,,,
,,,,,,,
,,,,,,,
,,,,,,,
,,,,,,,
,,,,,,,
,,,,,,,
,,,,,,,
,,,,,,,
,,,,,,,
,,,,,,,
,,,,,,,
,,,,,,,
,,,,,,,
,,,,,,,
,,,,,,,
,,,,,,,
,,,,,,,
,,,,,,,
,,,,,,,
,,,,,,,
,,,,,,,
,,,,,,,
,,,,,,,
,,,,,,,
,,,,,,,
,,,,,,,
,,,,,,,
,,,,,,,
,,,,,,,
,,,,,,,
,,,,,,,
,,,,,,,
,,,,,,,
,,,,,,,
,,,,,,,
,,,,,,,
,,,,,,,
,,,,,,,
,,,,,,,
,,,,,,,
,,,,,,,
,,,,,,,
,,,,,,,
,,,,,,,
,,,,,,,
,,,,,,,
,,,,,,,
,,,,,,,
,,,,,,,
,,,,,,,
,,,,,,,
,,,,,,,
,,,,,,,
,,,,,,,
,,,,,,,
,,,,,,,
,,,,,,,
,,,,,,,
,,,,,,,
,,,,,,,
,,,,,,,
,,,,,,,
,,,,,,,
,,,,,,,
,,,,,,,
,,,,,,,
,,,,,,,
,,,,,,,
,,,,,,,
,,,,,,,
,,,,,,,
,,,,,,,
,,,,,,,
,,,,,,,
,,,,,,,
,,,,,,,
,,,,,,,
,,,,,,,
,,,,,,,
,,,,,,,
,,,,,,,
,,,,,,,
,,,,,,,
,,,,,,,
,,,,,,,
,,,,,,,
,,,,,,,
,,,,,,,
,,,,,,,
,,,,,,,
,,,,,,,
,,,,,,,
,,,,,,,
,,,,,,,
,,,,,,,
,,,,,,,
,,,,,,,
,,,,,,,
,,,,,,,
,,,,,,,
,,,,,,,
,,,,,,,
,,,,,,,
,,,,,,,
,,,,,,,
,,,,,,,
,,,,,,,
,,,,,,,
,,,,,,,
,,,,,,,
,,,,,,,
,,,,,,,
,,,,,,,
,,,,,,,
,,,,,,,
,,,,,,,
,,,,,,,
,,,,,,,
,,,,,,,
,,,,,,,
,,,,,,,
,,,,,,,
,,,,,,,
,,,,,,,
,,,,,,,
,,,,,,,
,,,,,,,
,,,,,,,
,,,,,,,
,,,,,,,
,,,,,,,
,,,,,,,
,,,,,,,
,,,,,,,
,,,,,,,
,,,,,,,
,,,,,,,
,,,,,,,
,,,,,,,
,,,,,,,
,,,,,,,
,,,,,,,
,,,,,,,
,,,,,,,
,,,,,,,
,,,,,,,
,,,,,,,
,,,,,,,
,,,,,,,
,,,,,,,
,,,,,,,
,,,,,,,
,,,,,,,
,,,,,,,
,,,,,,,
,,,,,,,
,,,,,,,
,,,,,,,
,,,,,,,
,,,,,,,
,,,,,,,
,,,,,,,
,,,,,,,
,,,,,,,
,,,,,,,
,,,,,,,
,,,,,,,
,,,,,,,
,,,,,,,
,,,,,,,
,,,,,,,
,,,,,,,
,,,,,,,
,,,,,,,
,,,,,,,
,,,,,,,
,,,,,,,
,,,,,,,
,,,,,,,
,,,,,,,
,,,,,,,
,,,,,,,
,,,,,,,
,,,,,,,
,,,,,,,
,,,,,,,
,,,,,,,
,,,,,,,
,,,,,,,
,,,,,,,
,,,,,,,
,,,,,,,
,,,,,,,
,,,,,,,
,,,,,,,
,,,,,,,
,,,,,,,
,,,,,,,
,,,,,,,
,,,,,,,
,,,,,,,
,,,,,,,
,,,,,,,
,,,,,,,
,,,,,,,
,,,,,,,
,,,,,,,
,,,,,,,
,,,,,,,
,,,,,,,
,,,,,,,
,,,,,,,
,,,,,,,
,,,,,,,
,,,,,,,
,,,,,,,
,,,,,,,
,,,,,,,
,,,,,,,
,,,,,,,
,,,,,,,
,,,,,,,
,,,,,,,
,,,,,,,
,,,,,,,
,,,,,,,
,,,,,,,
,,,,,,,
,,,,,,,
,,,,,,,
,,,,,,,
,,,,,,,
,,,,,,,
,,,,,,,
,,,,,,,
,,,,,,,
,,,,,,,
,,,,,,,
,,,,,,,
,,,,,,,
,,,,,,,
,,,,,,,
,,,,,,,
,,,,,,,
,,,,,,,
,,,,,,,
,,,,,,,
,,,,,,,
,,,,,,,
,,,,,,,
,,,,,,,
,,,,,,,
,,,,,,, 