Name,Height,Zone,Easting,Northing,Latitude,Longitude,Points
Abbotts Lookout,1106,55G,4 71 700,52 63 490,-42.78061,146.65402,1
"Achilles, Mount",1363,55G,4 15 135,53 65 355,-41.85916,145.97754,3
"Acropolis, The",1480,55G,4 22 195,53 56 995,-41.93518,146.06148,4
Adamsons Peak,1225,55G,4 85 800,52 00 280,-43.3502,146.82479,3
"Albert, Mount",1120,55G,5 72 935,54 22 145,-41.34889,147.87183,1
"Aldebaran, Mount",1107,55G,4 46 630,52 19 270,-43.17745,146.34333,3
"Anne, Mount",1423,55G,4 53 010,52 45 375,-42.94281,146.42403,6
"Arthur, Mount",1188,55G,5 24 260,54 30 390,-41.27756,147.28968,2
Barn Bluff,1559,55G,4 10 420,53 80 305,-41.72401,145.92299,4
"Barrow, Mount",1420,55G,5 34 950,54 19 400,-41.37616,147.41795,1
"Beecroft, Mount",1136,55G,4 03 190,53 97 110,-41.57183,145.83881,2
Ben Nevis,1368,55G,5 52 325,54 15 565,-41.40976,147.62606,2
Black Bluff Range,1340,55G,4 11 220,54 09 820,-41.4583,145.93698,1
"Bobs, Mount",1111,55G,4 67 300,52 06 390,-43.29461,146.59688,5
Bonds Craig,1260,55G,4 40 750,52 90 680,-42.53399,146.27851,3
Brewery Knob,1203,55G,4 09 430,53 88 940,-41.64614,145.9124,1
"Byron, Mount",1375,55G,4 22 155,53 46 485,-42.02982,146.05961,2
Camp Hill,1172,55G,4 03 840,53 44 400,-42.04657,145.83806,1
"Campbell, Mount",1248,55G,4 14 455,53 87 895,-41.6561,145.97259,1
Castle Crag/Falling Mtn,1482,55G,4 25 150,53 59 770,-41.91047,146.09747,4
Castle Mountain,1208,55G,4 04 420,53 50 550,-41.99126,145.84606,2
Cheyne Range,1290,55G,4 18 790,53 37 180,-42.11327,146.01767,2
"Chimera, The",1111,55G,4 24 050,53 31 920,-42.16117,146.0806,2
Clear Hill,1198,55G,4 40 370,52 74 950,-42.67561,146.27224,2
Clumner Bluff,1458,55G,4 38 100,53 76 930,-41.75705,146.2554,2
Clytemnestra,1271,55G,4 02 550,53 17 820,-42.28575,145.81802,4
Collins Bonnet,1260,55G,5 12 200,52 52 050,-42.88405,147.1494,2
Conical Mountain,1124,55G,4 30 670,52 91 130,-42.5291,146.15583,2
Cradle Mountain,1545,55G,4 12 730,53 84 690,-41.68478,145.9514,4
"Cuvier, Mount",1378,55G,4 19 260,53 46 970,-42.02516,146.02471,3
Dome Hill,1177,55G,4 03 420,53 56 950,-41.93351,145.83504,2
Drys Bluff,1330,55G,4 83 865,53 81 940,-41.71417,146.80604,1
Du Cane Range,1520,55G,4 21 285,53 58 740,-41.91937,146.05074,1
"Dundas, Mount",1143,55G,3 73 370,53 60 710,-41.8954,145.47349,2
Eldon Bluff,1361,55G,4 02 770,53 52 170,-41.97647,145.82642,5
Eldon Peak,1439,55G,3 94 980,53 52 350,-41.97385,145.73244,5
Eldon Range,1321,55G,4 00 910,53 53 170,-41.96723,145.80414,4
"Emmett, Mount",1410,55G,4 15 335,53 81 915,-41.71005,145.98231,1
Federation Peak,1225,55G,4 57 460,52 08 910,-43.27142,146.47578,10
"Field East, Mount",1274,55G,4 71 020,52 77 500,-42.65442,146.64643,2
"Field West, Mount",1434,55G,4 60 240,52 77 235,-42.65632,146.51489,3
Florentine Peak,1376,55G,4 62 050,52 73 940,-42.68608,146.53676,2
Frenchmans Cap,1446,55G,4 03 540,53 19 610,-42.26975,145.83033,7
"Geikie, Mount",1193,55G,3 82 350,53 52 530,-41.97044,145.58008,2
"Gell, Mount",1447,55G,4 19 460,53 32 770,-42.15306,146.02517,4
"Gould, Mount",1491,55G,4 21 335,53 52 620,-41.97449,146.05053,4
Goulds Sugarloaf,1425,55G,4 17 240,53 42 310,-42.06692,145.99965,2
"Guardians, The",1394,55G,4 19 065,53 52 730,-41.97327,146.02315,3
Hartz Peak,1254,55G,4 81 160,52 11 900,-43.24547,146.76793,2
"Hayes, Mount",1119,55G,4 38 800,52 24 260,-43.13193,146.24755,3
High Dome,1366,55G,4 11 160,53 50 940,-41.98854,145.92748,5
"Hippogriff, The",1109,55G,4 23 300,53 33 750,-42.14462,146.07177,2
"Hobhouse, Mount",1222,55G,4 38 080,53 15 465,-42.31059,146.24867,1
Horizontal Hill,1254,55G,4 18 930,53 51 545,-41.98393,146.02135,2
"Hugel, Mount",1403,55G,4 24 390,53 38 210,-42.10456,146.08554,2
"Hyperion, Mount",1480,55G,4 20 070,53 59 200,-41.91511,146.03615,3
"Ida, Mount",1239,55G,4 30 700,53 47 690,-42.01977,146.16297,3
"Inglis, Mount",1281,55G,4 06 780,53 78 450,-41.7403,145.87895,3
Ironstone Mountain,1443,55G,4 56 495,53 82 125,-41.71148,146.47705,2
"Jerusalem, Mount",1459,55G,4 43 870,53 69 905,-41.82075,146.32414,2
"Jukes, Mount",1168,55G,3 82 950,53 30 040,-42.17303,145.58282,3
"Kate, Mount",1156,55G,4 13 280,53 92 290,-41.6164,145.95911,1
King Davids Peak,1499,55G,4 40 885,53 70 370,-41.81634,146.28825,2
"King William I, Mount",1324,55G,4 28 930,53 24 960,-42.2243,146.13882,2
"King William II, Mount",1361,55G,4 29 300,53 16 120,-42.30394,146.14223,3
"La Perouse, Mount",1158,55G,4 79 200,51 83 170,-43.50411,146.7427,4
Legges Tor,1572,55G,5 54 960,54 01 840,-41.5332,147.65883,1
Lightning Ridge,1262,55G,4 54 570,52 44 390,-42.95178,146.44307,5
Loddon Bluff,1220,55G,4 25 480,53 19 300,-42.27495,146.09629,3
"Lord, Mount",1198,55G,4 61 010,52 82 560,-42.60841,146.52465,2
Macs Mountain,1413,55G,4 15 745,53 56 825,-41.93605,145.98367,3
"Manfred, Mount",1382,55G,4 18 980,53 48 890,-42.00784,146.02159,3
"Marian, Mount",1132,55G,5 08 530,52 52 560,-42.87951,147.10445,1
Marriotts Lookout,1100,55G,4 73 660,52 65 290,-42.76447,146.67807,1
"Massif, Mount",1514,55G,4 22 375,53 60 255,-41.90584,146.06408,4
"Maurice, Mount",1121,55G,5 49 145,54 27 200,-41.30516,147.58707,1
Mensa Moor,1365,55G,5 53 570,53 96 300,-41.5832,147.64266,1
Mersey Crag,1420,55G,4 44 600,53 75 330,-41.77194,146.33344,1
Millers Bluff,1211,55G,5 14 320,53 57 380,-41.93542,147.17274,2
Mother Cummings Head,1260,55G,4 61 905,53 85 630,-41.68019,146.5423,1
Mountains of Jupiter,1320,55G,4 32 110,53 56 420,-41.94127,146.181,2
"Mueller, Mount",1245,55G,4 55 540,52 63 980,-42.77543,146.45651,2
"Murchison, Mount",1275,55G,3 85 200,53 70 500,-41.80906,145.61796,3
"Needles, The",1108,55G,4 55 390,52 13 750,-43.22772,146.45066,2
"Nereus, Mount",1184,55G,4 11 780,53 58 460,-41.92089,145.93609,4
Nescient Peak,1125,55G,4 33 020,53 67 020,-41.84589,146.19318,1
Nevada Peak,1390,55G,4 70 590,52 48 020,-42.91987,146.63965,2
"Oakleigh, Mount",1286,55G,4 20 005,53 72 030,-41.79956,146.0371,3
"Olympus (North), Mount",1472,55G,4 24 980,53 45 655,-42.03757,146.09362,3
"Orion, Mount",1151,55G,4 40 390,52 23 300,-43.1407,146.26699,3
"Orthys, Mount",1279,55G,4 28 560,53 43 235,-42.0597,146.13658,1
"Ossa, Mount",1614,55G,4 19 750,53 64 125,-41.87072,146.03296,4
"Owen, Mount",1146,55G,3 84 560,53 38 400,-42.098,145.60396,1
Parson and Clerk Mountain,1210,55G,5 03 990,53 59 200,-41.91914,147.04812,1
"Patrick, Mount",1119,55G,4 98 930,53 52 420,-41.98022,146.98708,1
"Pelion East, Mount",1461,55G,4 22 610,53 65 655,-41.85723,146.06762,2
"Pelion West, Mount",1560,55G,4 15 110,53 68 400,-41.83174,145.97767,5
"Penny West, Mount",1140,55G,4 95 770,53 47 030,-42.02875,146.9489,1
Perrins Bluff,1420,55G,4 14 380,53 63 440,-41.87633,145.96816,3
Philps Peak,1282,55G,4 06 330,53 17 880,-42.28567,145.86387,4
Philps Ridge,1238,55G,4 08 030,53 17 240,-42.29164,145.88439,3
"Picton, Mount",1327,55G,4 68 065,52 21 640,-43.15732,146.6072,3
"Pillinger, Mount",1280,55G,4 27 490,53 70 360,-41.81532,146.12699,2
Pindars Peak,1230,55G,4 74 660,51 82 040,-43.51414,146.68648,5
Pokana Peak,1127,55G,4 33 900,52 87 420,-42.56279,146.19473,2
Precipitous Bluff,1145,55G,4 67 880,51 87 860,-43.46148,146.60295,9
"Proteus, Mount",1152,55G,4 10 870,53 69 830,-41.8184,145.92683,1
Pyramid Mountain,1259,55G,4 12 240,53 44 400,-42.04755,145.93954,2
Quamby Bluff,1228,55G,4 74 790,53 88 730,-41.65278,146.69724,2
Ragged Jack,1369,55G,5 48 840,53 99 485,-41.55481,147.58566,2
Rats Castle,1393,55G,4 70 990,53 67 990,-41.83945,146.65059,1
"Read, Mount",1124,55G,3 78 970,53 66 380,-41.84523,145.54214,1
Recondite Knob,1170,55G,4 03 480,53 91 080,-41.62617,145.84131,1
Reeds Peak,1290,55G,4 40 760,52 89 050,-42.54867,146.27846,3
Rocky Hill,1194,55G,4 06 190,53 44 220,-42.04847,145.86642,1
Rodway Range,1377,55G,4 64 420,52 75 025,-42.67643,146.56575,1
"Rogoona, Mount",1350,55G,4 33 405,53 62 065,-41.89054,146.19726,2
"Roland, Mount",1233,55G,4 38 690,54 09 750,-41.4615,146.26586,2
"Rufus, Mount",1416,55G,4 25 595,53 35 990,-42.12467,146.09982,2
"Saddleback, Mount",1256,55G,5 63 565,54 16 780,-41.39801,147.7604,2
Sandbanks Tier,1401,55G,4 88 960,53 67 530,-41.84405,146.86702,1
"Sarah Jane, Mount",1290,55G,4 54 580,52 41 380,-42.97888,146.44295,3
"Scorpio, Mount",1106,55G,4 46 780,52 21 050,-43.16143,146.34535,2
"Sedgwick, Mount",1146,55G,3 85 420,53 48 960,-42.00304,145.61643,2
"Shakespeare, Mount",1221,55G,4 50 690,53 01 780,-42.43473,146.4005,2
Sharlands Peak,1140,55G,4 05 700,53 19 160,-42.27407,145.85644,2
"Sirius, Mount",1151,55G,4 40 180,52 22 550,-43.14743,146.26433,3
Slatters Peak,1300,55G,4 30 300,53 18 870,-42.27927,146.15469,1
Snowy North,1262,55G,4 71 100,52 54 590,-42.86073,146.64623,1
Snowy South,1398,55G,4 72 120,52 45 510,-42.94253,146.65827,2
"Sorell, Mount",1144,55G,3 79 800,53 18 990,-42.27204,145.54241,3
"Spires, The",1122,55G,4 28 630,52 93 690,-42.50587,146.13132,6
St Valentines Peak,1106,55G,3 95 930,54 20 940,-41.35632,145.75586,1
Stacks Bluff,1527,55G,5 57 340,53 91 510,-41.62608,147.68835,2
Stepped Hills,1111,55G,4 41 720,52 79 440,-42.63528,146.28917,3
"Thetis, Mount",1482,55G,4 16 975,53 65 105,-41.86161,145.99967,3
"Thumbs, The",1204,55G,4 47 095,52 74 985,-42.67579,146.35431,3
"Tor, Mount",1105,55G,4 07 500,54 12 770,-41.43131,145.8929,2
Tower Hill (East Tower),1100,55G,5 71 170,54 00 110,-41.54751,147.85334,1
Tower Hill (West Tower),1110,55G,5 69 450,54 00 860,-41.5409,147.83263,1
Tramontane,1142,55G,4 14 902,53 49 195,-42.0012,145.96189,1
Trestle Mountain,1160,55G,5 10 710,52 51 800,-42.88633,147.13116,2
Turrana Bluff,1450,55G,4 46 140,53 76 810,-41.75871,146.3521,1
Twin Spires (North),1406,55G,4 26 810,53 63 090,-41.88073,146.1179,2
"Tyndall, Mount",1179,55G,3 83 200,53 56 650,-41.93347,145.59115,2
"Victoria Cross, Mount",1120,55G,4 72 520,51 88 150,-43.45905,146.66032,4
"Victoria, Mount",1213,55G,5 70 340,54 23 935,-41.333,147.84061,2
Walled Mountain,1431,55G,4 18 740,53 56 460,-41.93965,146.01974,2
"Wedge, Mount",1147,55G,4 42 560,52 56 120,-42.84534,146.29705,2
"Weld, Mount",1345,55G,4 65 555,52 38 620,-43.00431,146.57738,4
"Wellington, Mount",1271,55G,5 19 375,52 50 705,-42.89602,147.23731,1
Wentworth Hills,1244,55G,4 43 130,53 25 710,-42.21871,146.31095,1
West Portal,1181,55G,4 52 140,52 17 360,-43.19502,146.41096,4
Western Bluff,1420,55G,4 40 220,53 92 480,-41.61716,146.28246,2
Wild Dog Tier,1394,55G,4 65 040,53 74 190,-41.78337,146.57929,1
"Wright, Mount",1112,55G,4 45 455,52 81 070,-42.62088,146.33488,3
Wylds Craig,1339,55G,4 49 895,52 97 410,-42.47404,146.39045,3
"Wylly, Mount",1110,55G,4 72 440,51 85 920,-43.47913,146.65922,3