{
  "version": 0.6,
  "generator": "Overpass API 0.7.62.11 87bfad18",
  "osm3s": {
    "timestamp_osm_base": "2026-06-07T01:30:40Z",
    "timestamp_areas_base": "2026-05-12T07:36:16Z",
    "copyright": "The data included in this document is from www.openstreetmap.org. The data is made available under ODbL."
  },
  "elements": [
    {
      "type": "node",
      "id": 26862480,
      "lat": 44.3327854,
      "lon": 10.1955113,
      "tags": {
        "PDOP": "1.87",
        "ele": "2016",
        "importance": "regional",
        "name": "Alpe di Succiso",
        "natural": "peak",
        "source": "survey",
        "wikidata": "Q1810954",
        "wikipedia": "it:Alpe di Succiso"
      }
    },
    {
      "type": "node",
      "id": 26862538,
      "lat": 45.9636324,
      "lon": 11.1934654,
      "tags": {
        "ele": "2150",
        "name": "Becco di Filadonna",
        "natural": "peak",
        "wikidata": "Q813568",
        "wikipedia": "it:Becco di Filadonna"
      }
    },
    {
      "type": "node",
      "id": 26862539,
      "lat": 46.6077526,
      "lon": 12.0445388,
      "tags": {
        "ele": "2794",
        "name": "Col Becchei Dessora",
        "name:lld": "Col Becchei Dessora",
        "natural": "peak"
      }
    },
    {
      "type": "node",
      "id": 26862661,
      "lat": 46.4740893,
      "lon": 11.6438283,
      "tags": {
        "ele": "3004",
        "name": "Kesselkogel - Catinaccio d'Antermoia",
        "name:de": "Kesselkogel",
        "name:it": "Catinaccio d'Antermoia",
        "natural": "peak",
        "summit:cross": "yes",
        "wikidata": "Q499252",
        "wikipedia": "de:Kesselkogel"
      }
    },
    {
      "type": "node",
      "id": 26862684,
      "lat": 46.4791667,
      "lon": 12.0980556,
      "tags": {
        "ele": "2715",
        "man_made": "survey_point",
        "name": "Cima Ambrizzola",
        "natural": "peak"
      }
    },
    {
      "type": "node",
      "id": 26862686,
      "lat": 46.4851159,
      "lon": 12.2678531,
      "tags": {
        "alt_name": "Cima Bastion",
        "ele": "2926",
        "name": "Cima Bastioni",
        "natural": "peak",
        "wikidata": "Q31643828"
      }
    },
    {
      "type": "node",
      "id": 26862689,
      "lat": 46.1794551,
      "lon": 10.8999063,
      "tags": {
        "ele": "3151",
        "name": "Cima Brenta",
        "natural": "peak",
        "prominence": "1496",
        "wikidata": "Q221844",
        "wikipedia": "it:Cima Brenta"
      }
    },
    {
      "type": "node",
      "id": 26862691,
      "lat": 46.5776149,
      "lon": 12.2882724,
      "tags": {
        "ele": "2839",
        "name": "Cima Cadin di San Lucano",
        "name:it": "Cima Cadin di San Lucano",
        "natural": "peak"
      }
    },
    {
      "type": "node",
      "id": 26862693,
      "lat": 46.1766183,
      "lon": 11.6052937,
      "tags": {
        "ele": "2847",
        "name": "Cima d'Asta",
        "natural": "peak",
        "summit:cross": "yes",
        "summit:register": "yes",
        "wikidata": "Q501840",
        "wikipedia": "it:Cima d'Asta"
      }
    },
    {
      "type": "node",
      "id": 26862695,
      "lat": 46.3423245,
      "lon": 12.4210592,
      "tags": {
        "ele": "2707",
        "loc_name": "Mont dei Preves",
        "name": "Cima dei Preti",
        "natural": "peak",
        "prominence": "1420",
        "wikidata": "Q936906",
        "wikipedia": "it:Cima dei Preti"
      }
    },
    {
      "type": "node",
      "id": 26862698,
      "lat": 46.2899137,
      "lon": 11.8297409,
      "tags": {
        "ele": "3192",
        "importance": "national",
        "name": "Cima della Vezzana",
        "natural": "peak",
        "prominence": "1273",
        "wikidata": "Q1092027",
        "wikipedia": "it:Vezzana"
      }
    },
    {
      "type": "node",
      "id": 26862704,
      "lat": 45.9976856,
      "lon": 11.4680336,
      "tags": {
        "ele": "2337",
        "name": "Cima Dodici (Ferozzo)",
        "natural": "peak",
        "prominence": "1867",
        "source:prominence": "2337-470 (Pergine Valsugana)",
        "wikidata": "Q937014",
        "wikipedia": "it:Cima XII",
        "wikipedia:de": "Cima Dodici"
      }
    },
    {
      "type": "node",
      "id": 26862706,
      "lat": 46.240557,
      "lon": 12.3431523,
      "tags": {
        "ele": "1940",
        "name": "Cima Mora",
        "natural": "peak",
        "prominence": "608"
      }
    },
    {
      "type": "node",
      "id": 26862707,
      "lat": 45.7922301,
      "lon": 11.1765372,
      "tags": {
        "alt_name": "Monte Pasubio",
        "ele": "2232",
        "name": "Cima Palon",
        "natural": "peak",
        "prominence": "1070",
        "wikidata": "Q3676757",
        "wikipedia": "it:Cima Palon"
      }
    },
    {
      "type": "node",
      "id": 26862708,
      "lat": 46.3343734,
      "lon": 11.9283766,
      "tags": {
        "alt_name": "Sanson",
        "ele": "2503",
        "name": "Cima Pape",
        "natural": "peak"
      }
    },
    {
      "type": "node",
      "id": 26862709,
      "lat": 45.7306233,
      "lon": 11.1384313,
      "tags": {
        "ele": "1858",
        "name": "Punta di mezzodì",
        "natural": "peak"
      }
    },
    {
      "type": "node",
      "id": 26862710,
      "lat": 46.2199321,
      "lon": 10.6641189,
      "tags": {
        "ele": "3557",
        "name": "Cima Presanella",
        "name:de": "Cima Presanella",
        "name:it": "Cima Presanella",
        "natural": "peak",
        "prominence": "1673",
        "source:prominence": "3556-1883 (Passo del Tonale)",
        "summit:cross": "yes",
        "wikidata": "Q2094363",
        "wikipedia": "it:Cima Presanella"
      }
    },
    {
      "type": "node",
      "id": 26862711,
      "lat": 46.9464887,
      "lon": 11.5077966,
      "tags": {
        "description": "Rollspitze Ostgipfel",
        "ele": "2800",
        "name": "Rollspitze - Cima Rolle",
        "name:de": "Rollspitze",
        "name:it": "Cima Rolle",
        "natural": "peak",
        "official_name:de": "Ralsspitz",
        "source:name": "register",
        "summit:cross": "yes",
        "summit:register": "yes"
      }
    },
    {
      "type": "node",
      "id": 26862712,
      "lat": 46.1565222,
      "lon": 10.8711276,
      "tags": {
        "ele": "3136",
        "name": "Cima Tosa",
        "natural": "peak",
        "prominence": "584",
        "wikidata": "Q594670",
        "wikipedia": "it:Cima Tosa"
      }
    },
    {
      "type": "node",
      "id": 26862714,
      "lat": 45.7263915,
      "lon": 10.8438832,
      "tags": {
        "ele": "2218",
        "name": "Cima Valdritta (Monte Baldo)",
        "nat_name": "Monte Baldo",
        "natural": "peak",
        "prominence": "1948",
        "source:prominence": "2218-270 (Mala)",
        "wikidata": "Q1945737"
      }
    },
    {
      "type": "node",
      "id": 26862717,
      "lat": 46.5073978,
      "lon": 12.3404365,
      "tags": {
        "ele": "2932",
        "name": "Cimon del Froppa",
        "natural": "peak",
        "wikidata": "Q3676992",
        "wikipedia": "it:Cimon del Froppa"
      }
    },
    {
      "type": "node",
      "id": 26862722,
      "lat": 46.0018483,
      "lon": 12.1283045,
      "tags": {
        "ele": "1358",
        "name": "Col de Moi",
        "natural": "peak",
        "summit:cross": "yes",
        "summit:register": "yes",
        "wikidata": "Q31631362"
      }
    },
    {
      "type": "node",
      "id": 26862723,
      "lat": 46.227435,
      "lon": 12.403342,
      "tags": {
        "ele": "2471",
        "name": "Col Nudo",
        "name:fur": "Cuel Nût",
        "natural": "peak",
        "prominence": "1643",
        "source:prominence": "2471-828 (Passo San Osvaldo)",
        "summit:cross": "yes",
        "summit:register": "yes",
        "wikidata": "Q1107329",
        "wikipedia": "it:Col Nudo"
      }
    },
    {
      "type": "node",
      "id": 26862734,
      "lat": 45.9880488,
      "lon": 11.0317717,
      "tags": {
        "alt_name": "Monte Bondone",
        "ele": "2178",
        "importance": "regional",
        "name": "Monte Cornetto",
        "natural": "peak",
        "prominence": "1678",
        "source:prominence": "2178-500 (Cadine)",
        "wikidata": "Q1478747"
      }
    },
    {
      "type": "node",
      "id": 26862737,
      "lat": 46.3347755,
      "lon": 11.454503,
      "tags": {
        "ele": "2439",
        "importance": "urban",
        "name": "Schwarzhorn - Corno Nero",
        "name:de": "Schwarzhorn",
        "name:en": "Schwarzhorn | Corno Nero",
        "name:it": "Corno Nero",
        "natural": "peak",
        "summit:cross": "yes",
        "wikidata": "Q1332805",
        "wikipedia": "it:Corno Nero (Dolomiti)"
      }
    },
    {
      "type": "node",
      "id": 26863279,
      "lat": 46.476688,
      "lon": 13.453627,
      "tags": {
        "alt_name:sl": "Poldanovec;Poldašnja špica",
        "ele": "2087",
        "name": "Jôf di Miezegnot",
        "name:de": "Malborgether Mittagskofel",
        "name:fur": "Jôf di Miezegnót",
        "name:it": "Jôf di Miezegnot",
        "name:sl": "Poldnašnja špica;Poldašnja špica",
        "natural": "peak",
        "old_name:de": "Grenzstein",
        "prominence": "695",
        "summit:cross": "yes",
        "summit:register": "yes",
        "wikidata": "Q3808777",
        "wikipedia": "it:Jof di Miezegnot"
      }
    },
    {
      "type": "node",
      "id": 26863280,
      "lat": 46.4357277,
      "lon": 13.433915,
      "tags": {
        "alt_name:sl": "Špik nad Policami;Poliški Špik;Bojec",
        "ele": "2754",
        "name": "Jôf di Montasio / Il Montâs / Špik nad Policami / Montasch",
        "name:de": "Montasch",
        "name:fur": "Jôf dal Montâs",
        "name:it": "Jôf di Montasio",
        "name:sl": "Montaž",
        "natural": "peak",
        "old_name:de": "Bramkofel",
        "prominence": "1598",
        "source:prominence": "2754-1156 (Passo del Predil)",
        "summit:cross": "yes",
        "wikidata": "Q1759191",
        "wikipedia": "it:Jôf di Montasio"
      }
    },
    {
      "type": "node",
      "id": 26863316,
      "lat": 46.3601863,
      "lon": 13.4390201,
      "tags": {
        "alt_name": "Monte Canin Alto",
        "ele": "2587",
        "loc_name": "Ćanïn",
        "name": "Kanin / Canin / La Mont Cjanìne",
        "name:fur": "La Mont Cjanìne",
        "name:it": "Canin",
        "name:sl": "Kanin",
        "natural": "peak",
        "prominence": "1403",
        "summit:cross": "yes",
        "summit:register": "yes",
        "wikidata": "Q1723772",
        "wikipedia": "it:Monte Canin"
      }
    },
    {
      "type": "node",
      "id": 26863323,
      "lat": 46.5396812,
      "lon": 13.569172,
      "tags": {
        "ele": "1735",
        "name": "Kapinberg / Monte Capin di ponente",
        "name:de": "Kapinberg",
        "name:fur": "Capìn",
        "name:it": "Monte Capin di ponente",
        "name:sl": "Veliki Kopinj",
        "natural": "peak"
      }
    },
    {
      "type": "node",
      "id": 26863478,
      "lat": 46.031898,
      "lon": 11.1877212,
      "tags": {
        "ele": "1737",
        "importance": "regional",
        "name": "La Marzola",
        "natural": "peak",
        "prominence": "1055",
        "summit:cross": "yes",
        "wikidata": "Q3850579",
        "wikipedia": "it:Marzola"
      }
    },
    {
      "type": "node",
      "id": 26863482,
      "lat": 46.1432672,
      "lon": 11.0374405,
      "tags": {
        "alt_name": "Cima Paganella",
        "ele": "2125",
        "importance": "regional",
        "name": "Paganella",
        "natural": "peak",
        "prominence": "1099",
        "wikidata": "Q2046117",
        "wikipedia": "it:Paganella"
      }
    },
    {
      "type": "node",
      "id": 26863488,
      "lat": 46.23,
      "lon": 12.1822222,
      "tags": {
        "ele": "2565",
        "name": "Monte Schiara",
        "natural": "peak",
        "wikidata": "Q3861991",
        "wikipedia": "it:Schiara"
      }
    },
    {
      "type": "node",
      "id": 26863713,
      "lat": 45.9998035,
      "lon": 11.6879398,
      "tags": {
        "ele": "1512",
        "name": "Cima Campo",
        "natural": "peak"
      }
    },
    {
      "type": "node",
      "id": 26863784,
      "lat": 45.8101897,
      "lon": 10.888836,
      "tags": {
        "ele": "2079",
        "name": "Monte Altissimo di Nago",
        "natural": "peak",
        "wikidata": "Q2448521",
        "wikipedia": "it:Monte Altissimo di Nago"
      }
    },
    {
      "type": "node",
      "id": 26863785,
      "lat": 46.400662,
      "lon": 13.0803831,
      "tags": {
        "ele": "1905",
        "name": "Monte Amariana / La Mariane",
        "name:fur": "La Mariane",
        "name:it": "Monte Amariana",
        "natural": "peak",
        "prominence": "937",
        "summit:register": "yes",
        "wikidata": "Q1092929",
        "wikipedia": "it:Monte Amariana"
      }
    },
    {
      "type": "node",
      "id": 26863797,
      "lat": 46.4413775,
      "lon": 12.6419964,
      "tags": {
        "alt_name:de": "Vesperkofel",
        "ele": "2474",
        "loc_name": "Beisplkouvl;Mittertochkogel",
        "name": "Monte Bivera",
        "name:fur": "La Bivare",
        "natural": "peak",
        "prominence": "696",
        "summit:cross": "yes",
        "summit:register": "yes",
        "wikidata": "Q3548146",
        "wikipedia": "it:Monte Bìvera"
      }
    },
    {
      "type": "node",
      "id": 26863799,
      "lat": 46.5125311,
      "lon": 12.5658983,
      "tags": {
        "ele": "2545",
        "name": "Monte Brentoni (Cima di Mezzo)",
        "natural": "peak",
        "prominence": "1017",
        "wikidata": "Q3861253",
        "wikipedia": "it:Monte Brentoni"
      }
    },
    {
      "type": "node",
      "id": 26863801,
      "lat": 45.9385884,
      "lon": 10.6983253,
      "tags": {
        "alt_name": "Monte Geometra",
        "ele": "2250",
        "name": "Monte Cadria",
        "natural": "peak",
        "prominence": "1434",
        "wikidata": "Q1545440",
        "wikipedia": "it:Monte Cadria"
      }
    },
    {
      "type": "node",
      "id": 26863811,
      "lat": 45.8021777,
      "lon": 10.6412044,
      "tags": {
        "alt_name": "Cima della Guardia",
        "ele": "1976",
        "name": "Monte Caplone",
        "natural": "peak",
        "prominence": "1234",
        "wikidata": "Q3861306",
        "wikipedia": "it:Monte Caplone"
      }
    },
    {
      "type": "node",
      "id": 26863820,
      "lat": 45.9459356,
      "lon": 12.0113763,
      "tags": {
        "ele": "1570",
        "name": "Monte Cesen",
        "natural": "peak",
        "summit:cross": "yes",
        "wikidata": "Q1672403",
        "wikipedia": "it:Monte Cesen"
      }
    },
    {
      "type": "node",
      "id": 26863824,
      "lat": 46.5972591,
      "lon": 12.738573,
      "tags": {
        "alt_name": "Monte Ciadin",
        "ele": "2287",
        "inscription": "APH 7.10.93 Sciauge olbm oar!",
        "loc_name": "Kór",
        "name": "Monte Chiadin (Cima ovest)",
        "name:de": "Kadin Kofel",
        "name:fur": "Cjadìn",
        "natural": "peak",
        "prominence": "540",
        "summit:cross": "yes",
        "summit:register": "yes"
      }
    },
    {
      "type": "node",
      "id": 26863825,
      "lat": 46.2945179,
      "lon": 13.1811838,
      "tags": {
        "alt_name": "Monte Chiampon",
        "ele": "1709",
        "name": "Cjampon",
        "name:sl": "Veliki Karman",
        "natural": "peak",
        "prominence": "700",
        "summit:cross": "yes",
        "summit:register": "yes",
        "wikidata": "Q3861442",
        "wikipedia": "it:Monte Chiampon"
      }
    },
    {
      "type": "node",
      "id": 26863828,
      "lat": 44.1937735,
      "lon": 10.6988799,
      "tags": {
        "ele": "2165",
        "importance": "regional",
        "name": "Monte Cimone",
        "name:sl": "Monte Cimone",
        "natural": "peak",
        "prominence": "1575",
        "source:prominence": "2165-590 (Pietragrossa)",
        "wikidata": "Q1945818",
        "wikipedia": "it:Monte Cimone (Appennino)"
      }
    },
    {
      "type": "node",
      "id": 26863830,
      "lat": 46.3801303,
      "lon": 12.0533469,
      "tags": {
        "ele": "3220",
        "name": "Monte Civetta",
        "natural": "peak",
        "prominence": "1454",
        "summit:cross": "yes",
        "wikidata": "Q1094438"
      }
    },
    {
      "type": "node",
      "id": 26863834,
      "lat": 46.3118332,
      "lon": 12.5845141,
      "tags": {
        "ele": "2322",
        "name": "Monte Cornaget",
        "name:fur": "Cornagjet",
        "natural": "peak",
        "prominence": "618",
        "wikidata": "Q3693647",
        "wikipedia": "it:Cornaget"
      }
    },
    {
      "type": "node",
      "id": 26863835,
      "lat": 46.274263,
      "lon": 12.4170623,
      "tags": {
        "ele": "1793",
        "name": "Monte Cornetto",
        "natural": "peak",
        "prominence": "799"
      }
    },
    {
      "type": "node",
      "id": 26863836,
      "lat": 46.2898752,
      "lon": 11.3238241,
      "tags": {
        "ele": "1781",
        "name": "Monte Corno - Trudner Horn",
        "name:de": "Trudner Horn",
        "name:it": "Monte Corno",
        "natural": "peak",
        "wikidata": "Q2456159",
        "wikipedia": "it:Monte Corno (Bolzano)"
      }
    },
    {
      "type": "node",
      "id": 26863839,
      "lat": 46.5426414,
      "lon": 12.7363557,
      "tags": {
        "ele": "2462",
        "loc_name:fur": "Cret Grant di Flaudona",
        "name": "Monte Creta Forata / Crete Forade / Preitkofel",
        "name:de": "Preitkofel",
        "name:fur": "Crete Forade",
        "name:it": "Monte Creta Forata",
        "natural": "peak",
        "prominence": "857",
        "summit:cross": "yes",
        "summit:register": "yes",
        "wikidata": "Q2271750",
        "wikipedia": "it:Creta Forata"
      }
    },
    {
      "type": "node",
      "id": 26863840,
      "lat": 46.5754463,
      "lon": 12.2005443,
      "tags": {
        "ele": "3221",
        "name": "Monte Cristallo",
        "name:de": "Kristallberg",
        "name:it": "Monte Cristallo",
        "natural": "peak",
        "prominence": "1416",
        "wikidata": "Q1945814",
        "wikipedia": "it:Monte Cristallo"
      }
    },
    {
      "type": "node",
      "id": 26863844,
      "lat": 46.2744496,
      "lon": 12.9966589,
      "tags": {
        "ele": "1478",
        "name": "Monte Cuar",
        "name:fur": "Mont di Cuàr",
        "natural": "peak",
        "prominence": "685",
        "wikidata": "Q31632943"
      }
    },
    {
      "type": "node",
      "id": 26863856,
      "lat": 46.2839283,
      "lon": 12.6372649,
      "tags": {
        "ele": "2062",
        "loc_name:fur": "Nosàip",
        "name": "Monte Dosaip",
        "name:fur": "Dosàip",
        "natural": "peak",
        "prominence": "562",
        "summit:cross": "yes",
        "wikidata": "Q31633220"
      }
    },
    {
      "type": "node",
      "id": 26863874,
      "lat": 44.3632997,
      "lon": 9.6784249,
      "tags": {
        "ele": "1639",
        "importance": "regional",
        "name": "Monte Gottero",
        "natural": "peak",
        "wikidata": "Q1945847",
        "wikipedia": "it:Monte Gottero"
      }
    },
    {
      "type": "node",
      "id": 26863875,
      "lat": 45.8734305,
      "lon": 11.7992028,
      "tags": {
        "ele": "1776.50",
        "name": "Monte Grappa",
        "natural": "peak",
        "prominence": "1456",
        "wikidata": "Q701820",
        "wikipedia": "it:Monte Grappa"
      }
    },
    {
      "type": "node",
      "id": 26863901,
      "lat": 46.0455556,
      "lon": 11.5816667,
      "tags": {
        "ele": "1678",
        "name": "Monte Mezza",
        "natural": "peak",
        "summit:cross": "yes",
        "wikidata": "Q31635559"
      }
    },
    {
      "type": "node",
      "id": 26863902,
      "lat": 46.2217077,
      "lon": 13.4784216,
      "tags": {
        "ele": "1247",
        "name": "Monte Mia/Mija",
        "name:fur": "Mont Mie",
        "name:it": "Monte Mia",
        "name:sl": "Mija",
        "natural": "peak",
        "prominence": "746",
        "wikidata": "Q31627902"
      }
    },
    {
      "type": "node",
      "id": 26863918,
      "lat": 46.2486305,
      "lon": 12.9307879,
      "tags": {
        "ele": "1230",
        "name": "Monte Pala Nord",
        "natural": "peak"
      }
    },
    {
      "type": "node",
      "id": 26863919,
      "lat": 46.299773,
      "lon": 13.0850073,
      "tags": {
        "alt_name": "Gran Pala",
        "ele": "1049",
        "name": "Monte Palantarins",
        "natural": "peak",
        "prominence": "734",
        "wikidata": "Q31655577"
      }
    },
    {
      "type": "node",
      "id": 26863922,
      "lat": 46.1045095,
      "lon": 11.8214153,
      "tags": {
        "ele": "2334",
        "name": "Monte Pavione",
        "natural": "peak",
        "wikidata": "Q3861814",
        "wikipedia": "it:Monte Pavione"
      }
    },
    {
      "type": "node",
      "id": 26863925,
      "lat": 46.4199771,
      "lon": 12.1347283,
      "tags": {
        "ele": "3172",
        "name": "Monte Pelmo",
        "natural": "peak",
        "prominence": "1191",
        "summit:cross": "yes",
        "summit:register": "yes",
        "wikidata": "Q1752828"
      }
    },
    {
      "type": "node",
      "id": 26863928,
      "lat": 46.6296155,
      "lon": 12.7199201,
      "tags": {
        "alt_name:de": "Jochkouvl",
        "ele": "2694",
        "name": "Monte Peralba",
        "name:de": "Hochweißstein",
        "name:it": "Monte Peralba",
        "natural": "peak",
        "summit:cross": "yes",
        "summit:register": "yes",
        "wikidata": "Q949153",
        "wikipedia": "it:Monte Peralba"
      }
    },
    {
      "type": "node",
      "id": 26863935,
      "lat": 46.3475659,
      "lon": 12.9582977,
      "tags": {
        "ele": "1746",
        "name": "Monte Piombada",
        "name:fur": "la Plombade",
        "natural": "peak",
        "prominence": "790",
        "summit:cross": "yes",
        "summit:register": "yes",
        "wikidata": "Q31632601"
      }
    },
    {
      "type": "node",
      "id": 26863942,
      "lat": 46.3649347,
      "lon": 12.5535699,
      "tags": {
        "ele": "2478",
        "name": "Monte Pramaggiore",
        "name:fur": "Pramaiôr",
        "natural": "peak",
        "prominence": "550",
        "summit:cross": "yes",
        "summit:register": "yes",
        "wikidata": "Q3861869",
        "wikipedia": "it:Monte Pramaggiore"
      }
    },
    {
      "type": "node",
      "id": 26863945,
      "lat": 46.4560625,
      "lon": 13.5570478,
      "tags": {
        "ele": "1912",
        "name": "Monte Re / Königsberg / Kraljevska špica",
        "name:de": "Königsberg",
        "name:it": "Monte Re",
        "name:sl": "Kraljevska špica",
        "natural": "peak",
        "wikidata": "Q3861892",
        "wikipedia": "it:Monte Re"
      }
    },
    {
      "type": "node",
      "id": 26863947,
      "lat": 46.2397222,
      "lon": 12.5772222,
      "tags": {
        "alt_name": "Monte Forcia Bassa",
        "ele": "2067",
        "name": "Monte Resettum",
        "natural": "peak",
        "prominence": "635",
        "wikidata": "Q31633298"
      }
    },
    {
      "type": "node",
      "id": 26863948,
      "lat": 46.5990179,
      "lon": 12.6580795,
      "tags": {
        "ele": "2473",
        "name": "Monte Rinaldo",
        "name:it": "Monte Rinaldo",
        "natural": "peak",
        "wikidata": "Q31660255"
      }
    },
    {
      "type": "node",
      "id": 26863949,
      "lat": 45.770834,
      "lon": 11.2991623,
      "tags": {
        "alt_name": "Monte Rivòn",
        "ele": "1691",
        "name": "Monte Rione",
        "natural": "peak",
        "tourism": "viewpoint"
      }
    },
    {
      "type": "node",
      "id": 26863950,
      "lat": 46.3845351,
      "lon": 12.2578732,
      "tags": {
        "ele": "2183",
        "name": "Monte Rite",
        "natural": "peak",
        "wikidata": "Q1231982",
        "wikipedia": "it:Monte Rite"
      }
    },
    {
      "type": "node",
      "id": 26863951,
      "lat": 46.3366435,
      "lon": 12.2681893,
      "tags": {
        "ele": "2469",
        "man_made": "survey_point",
        "name": "Sasso di Bosconero",
        "natural": "peak",
        "wikidata": "Q3950690",
        "wikipedia": "it:Sasso di Bosconero"
      }
    },
    {
      "type": "node",
      "id": 26863952,
      "lat": 46.3604269,
      "lon": 11.192267,
      "tags": {
        "direction": "0-360",
        "ele": "2116",
        "name": "Roen",
        "name:de": "Roen",
        "name:it": "Monte Roen",
        "natural": "peak",
        "old_name:de": "Rhönberg",
        "summit:cross": "yes",
        "tourism": "viewpoint",
        "wikidata": "Q913922",
        "wikipedia": "de:Roen"
      }
    },
    {
      "type": "node",
      "id": 26863969,
      "lat": 46.4750147,
      "lon": 13.1376726,
      "tags": {
        "ele": "2187",
        "loc_name": "Crete dal Serenât",
        "name": "Monte Sernio / Crete dal Serenât",
        "name:fur": "Crete dal Serenât",
        "name:it": "Monte Sernio",
        "natural": "peak",
        "prominence": "941",
        "summit:cross": "yes",
        "summit:register": "yes",
        "wikidata": "Q2560918",
        "wikipedia": "it:Monte Sernio"
      }
    },
    {
      "type": "node",
      "id": 26863989,
      "lat": 46.5080198,
      "lon": 13.0819694,
      "tags": {
        "ele": "1960",
        "name": "Monte Tersadia",
        "natural": "peak",
        "prominence": "949",
        "summit:cross": "yes",
        "wikidata": "Q31629870"
      }
    },
    {
      "type": "node",
      "id": 26863992,
      "lat": 45.9815363,
      "lon": 11.9052552,
      "tags": {
        "ele": "1595",
        "name": "Monte Tomatico",
        "natural": "peak",
        "summit:cross": "yes",
        "summit:register": "yes",
        "wikidata": "Q3862076",
        "wikipedia": "it:Monte Tomatico"
      }
    },
    {
      "type": "node",
      "id": 26863994,
      "lat": 46.135559,
      "lon": 11.7492946,
      "tags": {
        "ele": "1705",
        "name": "Monte Totoga",
        "natural": "peak",
        "summit:cross": "yes",
        "summit:register": "no",
        "wikidata": "Q3862083",
        "wikipedia": "it:Monte Totoga"
      }
    },
    {
      "type": "node",
      "id": 26863997,
      "lat": 46.3438773,
      "lon": 12.8352241,
      "tags": {
        "ele": "1908",
        "name": "Monte Valcalda",
        "natural": "peak",
        "prominence": "848",
        "summit:cross": "yes",
        "wikidata": "Q31632678"
      }
    },
    {
      "type": "node",
      "id": 26864000,
      "lat": 45.9306598,
      "lon": 11.4138837,
      "tags": {
        "ele": "2015",
        "name": "Monte Verena",
        "natural": "peak",
        "wikidata": "Q3862119",
        "wikipedia": "it:Monte Verena"
      }
    },
    {
      "type": "node",
      "id": 26864001,
      "lat": 46.3631395,
      "lon": 12.9056362,
      "tags": {
        "alt_name": "Pizzat",
        "ele": "1914",
        "loc_name:fur": "Mont di Verzegnas",
        "name": "Monte Verzegnis",
        "name:fur": "Mont di Verzegnis",
        "natural": "peak",
        "prominence": "1127",
        "wikidata": "Q24934248",
        "wikipedia": "it:Monte Verzegnis"
      }
    },
    {
      "type": "node",
      "id": 26864007,
      "lat": 46.5614684,
      "lon": 13.1516626,
      "tags": {
        "ele": "2143",
        "name": "Monte Zermula",
        "name:fur": "La Zèrmule",
        "name:it": "Monte Zermula",
        "natural": "peak",
        "prominence": "591",
        "summit:cross": "yes",
        "summit:register": "yes",
        "wikidata": "Q3862140",
        "wikipedia": "it:Monte Zermula"
      }
    },
    {
      "type": "node",
      "id": 26864114,
      "lat": 46.5659298,
      "lon": 13.4995633,
      "tags": {
        "ele": "2052",
        "name": "Osternig / Oisternig",
        "name:de": "Oisternig",
        "name:it": "Monte Osternig",
        "name:sl": "Ojstrnik",
        "natural": "peak",
        "prominence": "620",
        "summit:cross": "yes",
        "summit:register": "yes",
        "wikidata": "Q3886921",
        "wikipedia": "it:Osternig"
      }
    },
    {
      "type": "node",
      "id": 26864153,
      "lat": 46.5090956,
      "lon": 10.5449304,
      "tags": {
        "ele": "3905",
        "name": "Ortler - Ortles",
        "name:de": "Ortler",
        "name:it": "Ortles",
        "natural": "peak",
        "prominence": "1953",
        "source:prominence": "3905-1952 (Passo di Fraele)",
        "summit:cross": "yes",
        "wikidata": "Q650695",
        "wikipedia": "de:Ortler"
      }
    },
    {
      "type": "node",
      "id": 26864251,
      "lat": 46.6725105,
      "lon": 12.1855479,
      "tags": {
        "ele": "2839",
        "man_made": "cross",
        "name": "Dürrenstein - Picco di Vallandro",
        "name:de": "Dürrenstein",
        "name:it": "Picco di Vallandro",
        "natural": "peak",
        "summit:cross": "yes",
        "summit:register": "yes",
        "wikidata": "Q446034",
        "wikipedia": "it:Picco di Vallandro"
      }
    },
    {
      "type": "node",
      "id": 26864291,
      "lat": 46.2187099,
      "lon": 12.0361267,
      "tags": {
        "ele": "2240",
        "name": "Piz di Mezzodi",
        "natural": "peak",
        "prominence": "1248",
        "wikidata": "Q3905950",
        "wikipedia": "it:Piz di Mezzodì"
      }
    },
    {
      "type": "node",
      "id": 26864383,
      "lat": 46.5069444,
      "lon": 12.2116667,
      "tags": {
        "ele": "3205",
        "name": "Punta Sorapiss",
        "natural": "peak",
        "prominence": "1085",
        "wikidata": "Q24705615"
      }
    },
    {
      "type": "node",
      "id": 26864459,
      "lat": 46.6887473,
      "lon": 12.2778058,
      "tags": {
        "alt_name:it": "La Rocca;Rocca Grande;Rocca Principale dei Baranci",
        "ele": "2966",
        "loc_name": "Haunoldspitze",
        "man_made": "cross",
        "name": "Haunold - Rocca dei Baranci",
        "name:de": "Haunold",
        "name:it": "Rocca dei Baranci",
        "natural": "peak",
        "summit:cross": "yes",
        "summit:register": "yes",
        "wikidata": "Q1589375",
        "wikipedia": "it:Rocca dei Baranci"
      }
    },
    {
      "type": "node",
      "id": 26864542,
      "lat": 46.1636111,
      "lon": 11.9252778,
      "tags": {
        "ele": "2547",
        "loc_name": "Sass de Mura",
        "name": "Sass di Mura",
        "natural": "peak",
        "prominence": "1178",
        "wikidata": "Q3940595",
        "wikipedia": "it:Sass de Mura"
      }
    },
    {
      "type": "node",
      "id": 26864897,
      "lat": 46.2661111,
      "lon": 12.1558333,
      "tags": {
        "ele": "2542",
        "man_made": "survey_point",
        "name": "Talvena",
        "natural": "peak",
        "wikidata": "Q3862059",
        "wikipedia": "it:Monte Talvena"
      }
    },
    {
      "type": "node",
      "id": 26864899,
      "lat": 46.3091792,
      "lon": 12.1212941,
      "tags": {
        "ele": "2547",
        "name": "Tamer Grande",
        "natural": "peak"
      }
    },
    {
      "type": "node",
      "id": 26864908,
      "lat": 46.5269091,
      "lon": 12.6216336,
      "tags": {
        "ele": "2586",
        "name": "Terza Grande",
        "name:de": "Plichenkofel",
        "natural": "peak",
        "prominence": "1277",
        "summit:cross": "yes",
        "summit:register": "yes",
        "wikidata": "Q3862066",
        "wikipedia": "it:Monte Terza Grande"
      }
    },
    {
      "type": "node",
      "id": 26864909,
      "lat": 46.5599475,
      "lon": 12.6247846,
      "tags": {
        "ele": "2336",
        "name": "Terza Piccola",
        "natural": "peak",
        "summit:cross": "yes",
        "summit:register": "yes",
        "wikidata": "Q3862062",
        "wikipedia": "it:Monte Terza Piccola"
      }
    },
    {
      "type": "node",
      "id": 26864932,
      "lat": 46.5509896,
      "lon": 12.0654921,
      "tags": {
        "ele": "3244",
        "name": "Tofana di Mezzo",
        "natural": "peak",
        "prominence": "1368",
        "summit:cross": "yes",
        "summit:register": "yes",
        "wikidata": "Q24764720"
      }
    },
    {
      "type": "node",
      "id": 26864933,
      "lat": 46.537008,
      "lon": 12.051053,
      "tags": {
        "ele": "3225",
        "name": "Tofana di Rozes",
        "natural": "peak",
        "summit:cross": "yes",
        "wikidata": "Q24764881"
      }
    },
    {
      "type": "node",
      "id": 26865132,
      "lat": 46.7978283,
      "lon": 10.7260747,
      "tags": {
        "ele": "3738",
        "man_made": "cross",
        "name": "Weißkugel - Palla Bianca",
        "name:de": "Weißkugel",
        "name:it": "Palla Bianca",
        "natural": "peak",
        "wikidata": "Q701816",
        "wikipedia": "it:Palla Bianca"
      }
    },
    {
      "type": "node",
      "id": 26865164,
      "lat": 46.4496725,
      "lon": 13.2585678,
      "tags": {
        "alt_name": "Zuc del Bor",
        "ele": "2195",
        "name": "Zuc dal Bor / Çuc dal Bôr",
        "name:fur": "Çuc dal Bôr",
        "name:it": "Zuc dal Bor",
        "natural": "peak",
        "prominence": "1112",
        "summit:cross": "yes",
        "summit:register": "yes",
        "wikidata": "Q4024888",
        "wikipedia": "it:Zuc del Bor"
      }
    },
    {
      "type": "node",
      "id": 61100875,
      "lat": 46.4843423,
      "lon": 11.5246323,
      "tags": {
        "ele": "1834",
        "name": "Völseggspitze - Monte Balzo",
        "name:de": "Völseggspitze",
        "name:it": "Monte Balzo",
        "natural": "peak",
        "wikidata": "Q31644071"
      }
    },
    {
      "type": "node",
      "id": 94950230,
      "lat": 46.7444225,
      "lon": 10.647688,
      "tags": {
        "ele": "3074",
        "name": "Portlesspitze - Pizzo Portles",
        "name:de": "Portlesspitze",
        "name:it": "Pizzo Portles",
        "natural": "peak",
        "source": "https://map.schweizmobil.ch/",
        "wikidata": "Q31661301"
      }
    },
    {
      "type": "node",
      "id": 94950233,
      "lat": 46.7687255,
      "lon": 10.6706547,
      "tags": {
        "alt_name": "Valvelspitze",
        "ele": "3360",
        "name": "Südliche Valvelspitze",
        "natural": "peak",
        "wikidata": "Q7912838"
      }
    },
    {
      "type": "node",
      "id": 107792317,
      "lat": 46.6789898,
      "lon": 10.5597004,
      "tags": {
        "alt_name:de": "Tartscher Bühel",
        "ele": "1077",
        "name": "Tartscher Bichl - Collina di Tarces",
        "name:de": "Tartscher Bichl",
        "name:it": "Collina di Tarces",
        "natural": "peak",
        "source": "http://www.vinschgerbahn.it/it/282.asp",
        "wikidata": "Q999636",
        "wikipedia": "de:Tartscher Bichl"
      }
    },
    {
      "type": "node",
      "id": 206124143,
      "lat": 46.1674851,
      "lon": 10.806582,
      "tags": {
        "ele": "2100",
        "name": "Doss del Sabion",
        "natural": "peak",
        "wikidata": "Q31222362"
      }
    },
    {
      "type": "node",
      "id": 206140857,
      "lat": 46.1858389,
      "lon": 10.6065157,
      "tags": {
        "ele": "2687",
        "name": "Corno del Menicìgolo",
        "natural": "peak",
        "source": "Sacchi: Adamello, Vol. I, CAI-TCI"
      }
    },
    {
      "type": "node",
      "id": 224795496,
      "lat": 46.5642358,
      "lon": 11.9051941,
      "tags": {
        "ele": "2078",
        "name": "Piz la Ila",
        "natural": "peak",
        "wikidata": "Q31675317"
      }
    },
    {
      "type": "node",
      "id": 224795497,
      "lat": 46.5564255,
      "lon": 11.9218183,
      "tags": {
        "alt_name": "Piz Surega; Piz Sorega",
        "ele": "2011",
        "name": "Piz de Surega",
        "natural": "peak"
      }
    },
    {
      "type": "node",
      "id": 224795499,
      "lat": 46.5166435,
      "lon": 11.8847157,
      "tags": {
        "ele": "2095",
        "name": "Cherz",
        "natural": "peak"
      }
    },
    {
      "type": "node",
      "id": 224795501,
      "lat": 46.5542512,
      "lon": 11.888123,
      "tags": {
        "ele": "1980",
        "name": "Col Alt",
        "natural": "peak"
      }
    },
    {
      "type": "node",
      "id": 248951671,
      "lat": 46.3113226,
      "lon": 11.5235816,
      "tags": {
        "alt_name": "Cornon",
        "ele": "2188",
        "importance": "urban",
        "name": "Cornacci",
        "natural": "peak",
        "source:ele": "3rd Military Mapping Survey of Austria-Hungary",
        "wikidata": "Q31645533"
      }
    },
    {
      "type": "node",
      "id": 252412342,
      "lat": 46.7123042,
      "lon": 11.5188306,
      "tags": {
        "ele": "2484",
        "name": "Lorenzen - Cima San Lorenzo",
        "name:de": "Lorenzen",
        "name:it": "Cima San Lorenzo",
        "natural": "peak",
        "summit:cross": "yes",
        "wikidata": "Q1870171"
      }
    },
    {
      "type": "node",
      "id": 253458380,
      "lat": 46.171736,
      "lon": 11.4554569,
      "tags": {
        "ele": "2481",
        "importance": "urban",
        "name": "Ziolera",
        "natural": "peak",
        "source:ele": "3rd Military Mapping Survey of Austria-Hungary",
        "summit:cross": "yes"
      }
    },
    {
      "type": "node",
      "id": 253458640,
      "lat": 46.220685,
      "lon": 11.4792198,
      "tags": {
        "ele": "2484",
        "importance": "urban",
        "name": "Cimon di Val Moena",
        "natural": "peak",
        "source:ele": "3rd Military Mapping Survey of Austria-Hungary",
        "wikidata": "Q31636057"
      }
    },
    {
      "type": "node",
      "id": 253472355,
      "lat": 46.3251155,
      "lon": 11.6219478,
      "tags": {
        "ele": "2007",
        "importance": "suburban",
        "name": "La Sopösa",
        "natural": "peak"
      }
    },
    {
      "type": "node",
      "id": 253472403,
      "lat": 46.3270715,
      "lon": 11.6326015,
      "tags": {
        "ele": "2149",
        "importance": "urban",
        "name": "Monte Mulat - Mül Grant",
        "natural": "peak",
        "source:ele": "3rd Military Mapping Survey of Austria-Hungary"
      }
    },
    {
      "type": "node",
      "id": 253473249,
      "lat": 46.3376652,
      "lon": 11.6751093,
      "tags": {
        "ele": "2491",
        "importance": "urban",
        "name": "Viezzena - Viesena",
        "natural": "peak",
        "wikidata": "Q18785678",
        "wikipedia": "it:Viezzena"
      }
    },
    {
      "type": "node",
      "id": 253480188,
      "lat": 46.3562573,
      "lon": 11.6704242,
      "tags": {
        "ele": "2301",
        "name": "Sas de Mezdì",
        "natural": "peak"
      }
    },
    {
      "type": "node",
      "id": 256041694,
      "lat": 46.7802848,
      "lon": 10.8319334,
      "tags": {
        "ele": "3514",
        "name": "Finailspitze - Punta di Finale",
        "name:de": "Finailspitze",
        "name:it": "Punta di Finale",
        "natural": "peak",
        "note": "position in basemap.at too far north",
        "source": "basemap.at",
        "summit:cross": "yes",
        "wikidata": "Q544968",
        "wikipedia": "it:Punta di Finale"
      }
    },
    {
      "type": "node",
      "id": 256041703,
      "lat": 46.9705175,
      "lon": 11.1899934,
      "tags": {
        "ele": "3418",
        "name": "Wilder Freiger - Cima Libera",
        "name:de": "Wilder Freiger",
        "name:it": "Cima Libera",
        "natural": "peak",
        "summit:cross": "yes",
        "summit:register": "yes",
        "wikidata": "Q180378",
        "wikipedia": "it:Cima Libera"
      }
    },
    {
      "type": "node",
      "id": 256041797,
      "lat": 46.9779753,
      "lon": 11.7179995,
      "tags": {
        "alt_name": "Hochfernerspitze",
        "ele": "3470",
        "name": "Hochferner - Gran Vedretta",
        "name:de": "Hochferner",
        "name:it": "Gran Vedretta",
        "natural": "peak",
        "wikidata": "Q873287",
        "wikipedia": "de:Hochfernerspitze"
      }
    },
    {
      "type": "node",
      "id": 256041842,
      "lat": 46.7654204,
      "lon": 11.0222536,
      "tags": {
        "alt_name:de": "Hohe Wilde",
        "ele": "3482",
        "name": "Hochwilde - Cima Altissima",
        "name:de": "Hochwilde",
        "name:it": "Cima Altissima",
        "natural": "peak",
        "summit:cross": "yes",
        "wikidata": "Q668470",
        "wikipedia": "de:Hochwilde"
      }
    },
    {
      "type": "node",
      "id": 256041857,
      "lat": 46.7725653,
      "lon": 10.9748367,
      "tags": {
        "alt_name:de": "Grubspitze",
        "ele": "3463",
        "name": "Karlesspitze - Cima di Quaira",
        "name:de": "Karlesspitze",
        "name:it": "Cima di Quaira",
        "natural": "peak",
        "source": "basemap.at",
        "wikidata": "Q662876",
        "wikipedia": "de:Karlesspitze"
      }
    },
    {
      "type": "node",
      "id": 256042799,
      "lat": 46.763682,
      "lon": 10.8806482,
      "tags": {
        "ele": "3597",
        "name": "Similaun",
        "natural": "peak",
        "source:ele": "basemap.at;civis.bz.it",
        "summit:cross": "yes",
        "wikidata": "Q697937",
        "wikipedia": "it:Similaun"
      }
    },
    {
      "type": "node",
      "id": 256042855,
      "lat": 46.8462323,
      "lon": 10.7168691,
      "tags": {
        "ele": "3498",
        "name": "Weißseespitze - Cima del Lago Bianco",
        "name:de": "Weißseespitze",
        "name:it": "Cima del Lago Bianco",
        "natural": "peak",
        "note": "for the elevation, older maps give 3530m, 3534m, 3532m, 3518m, 3501m (basemap), 3499m (Laserscan); some of these differences are related to glacial melting and slow mass movement that has started in 1997",
        "source:ele": "ÖK50",
        "wikidata": "Q871863",
        "wikipedia": "it:Cima del Lago Bianco",
        "wikipedia:de": "Weißseespitze"
      }
    },
    {
      "type": "node",
      "id": 256057437,
      "lat": 46.9655114,
      "lon": 11.2438947,
      "tags": {
        "ele": "3194",
        "name": "Aglsspitze - Cima dell Accla",
        "name:de": "Aglsspitze",
        "name:it": "Cima dell Accla",
        "natural": "peak",
        "wikidata": "Q393254",
        "wikimedia_commons": "Category:Agglsspitze",
        "wikipedia": "it:Cima dell'Accla"
      }
    },
    {
      "type": "node",
      "id": 256057446,
      "lat": 46.9311224,
      "lon": 11.198011,
      "tags": {
        "ele": "3251",
        "name": "Botzer - Il Capro",
        "name:de": "Botzer",
        "name:it": "Il Capro",
        "natural": "peak",
        "wikidata": "Q894934"
      }
    },
    {
      "type": "node",
      "id": 267701251,
      "lat": 46.0727538,
      "lon": 11.1117489,
      "tags": {
        "alt_name": "Dos Trento",
        "ele": "309",
        "importance": "regional",
        "loc_name": "Dòs Trènt",
        "name": "Doss Trento",
        "natural": "peak",
        "old_name": "Monte Verruca",
        "wikidata": "Q3714444",
        "wikipedia": "it:Doss Trento"
      }
    },
    {
      "type": "node",
      "id": 267702463,
      "lat": 46.0703277,
      "lon": 11.158754,
      "tags": {
        "alt_name": "Dosso Sant'Agata",
        "ele": "576",
        "importance": "suburban",
        "name": "Dosso di Sant'Agata",
        "natural": "peak",
        "wikidata": "Q3714461",
        "wikipedia": "it:Dosso Sant'Agata"
      }
    },
    {
      "type": "node",
      "id": 267702683,
      "lat": 46.0336672,
      "lon": 11.141443,
      "tags": {
        "alt_name": "Dosso San Rocco",
        "ele": "460",
        "importance": "suburban",
        "name": "Dosso di San Rocco",
        "natural": "peak",
        "wikidata": "Q3714464",
        "wikipedia": "it:Dosso di San Rocco"
      }
    },
    {
      "type": "node",
      "id": 267976756,
      "lat": 46.3458524,
      "lon": 11.5123106,
      "tags": {
        "ele": "2493",
        "importance": "urban",
        "name": "Pala di Santa - Pala de Zanca",
        "name:de": "Zanggenberg",
        "name:it": "Pala di Santa - Pala de Zanca",
        "natural": "peak",
        "wikidata": "Q146899",
        "wikipedia": "it:Pala di Santa"
      }
    },
    {
      "type": "node",
      "id": 267976758,
      "lat": 46.3241664,
      "lon": 11.4317083,
      "tags": {
        "ele": "2077",
        "importance": "suburban",
        "name": "Cugola",
        "name:de": "Kugelspitz",
        "natural": "peak",
        "source:ele": "http://lazarus.elte.hu/hun/digkonyv/topo/200e/29-46.jpg",
        "wikidata": "Q31644876"
      }
    },
    {
      "type": "node",
      "id": 268252942,
      "lat": 45.6946549,
      "lon": 10.7927044,
      "tags": {
        "ele": "1192",
        "name": "Punta Veleno",
        "natural": "peak"
      }
    },
    {
      "type": "node",
      "id": 272394005,
      "lat": 46.54462,
      "lon": 11.865117,
      "tags": {
        "alt_name": "Crep de Sella",
        "ele": "1867",
        "loc_ref": "Crep de Sella [1867]",
        "name": "Crëp de Sela",
        "natural": "peak"
      }
    },
    {
      "type": "node",
      "id": 274271321,
      "lat": 45.9673727,
      "lon": 13.4763104,
      "tags": {
        "ele": "274",
        "name": "Monte Quarin / La mont Cuarine / Krminska gora",
        "name:fur": "La mont Cuarine",
        "name:sl": "Krminska gora",
        "natural": "peak",
        "tourism": "viewpoint"
      }
    },
    {
      "type": "node",
      "id": 276645294,
      "lat": 46.6857979,
      "lon": 11.3036364,
      "tags": {
        "ele": "2390",
        "name": "Windspitz",
        "natural": "peak"
      }
    },
    {
      "type": "node",
      "id": 276796482,
      "lat": 46.0404495,
      "lon": 12.34706,
      "tags": {
        "ele": "1565",
        "name": "Monte Pizzoc",
        "natural": "peak",
        "wikidata": "Q3906043",
        "wikipedia": "it:Pizzoc"
      }
    },
    {
      "type": "node",
      "id": 278566167,
      "lat": 45.5876309,
      "lon": 10.6914536,
      "tags": {
        "ele": "413",
        "name": "Monte Luppia",
        "natural": "peak"
      }
    },
    {
      "type": "node",
      "id": 278566431,
      "lat": 45.5692364,
      "lon": 10.7132376,
      "tags": {
        "ele": "283",
        "name": "La Rocca",
        "natural": "peak",
        "wikidata": "Q30888656",
        "wikipedia": "it:Rocca di Garda"
      }
    },
    {
      "type": "node",
      "id": 279295823,
      "lat": 46.37956,
      "lon": 11.62491,
      "tags": {
        "ele": "2186",
        "name": "Sas da Ciamp",
        "natural": "peak"
      }
    },
    {
      "type": "node",
      "id": 279297793,
      "lat": 46.3100381,
      "lon": 11.57213,
      "tags": {
        "ele": "2173",
        "name": "Doss Capèl",
        "natural": "peak",
        "wikidata": "Q3898884",
        "wikipedia": "it:Pelenzana"
      }
    },
    {
      "type": "node",
      "id": 279303165,
      "lat": 44.3821413,
      "lon": 10.0418844,
      "tags": {
        "ele": "1717",
        "name": "Monte Scala",
        "natural": "peak",
        "source": "CTR 5000 Regione Emilia-Romagna"
      }
    },
    {
      "type": "node",
      "id": 279303239,
      "lat": 44.3839033,
      "lon": 10.0207184,
      "tags": {
        "ele": "1797",
        "name": "Monte Brusà",
        "natural": "peak",
        "source": "CTR 5000 Regione Emilia-Romagna",
        "wikidata": "Q3861256",
        "wikipedia": "it:Monte Brusa"
      }
    },
    {
      "type": "node",
      "id": 279835477,
      "lat": 46.5631204,
      "lon": 11.8352476,
      "tags": {
        "ele": "2667",
        "name": "Sass da Ciampac",
        "natural": "peak",
        "wikidata": "Q31679362"
      }
    },
    {
      "type": "node",
      "id": 279836254,
      "lat": 46.5945886,
      "lon": 11.8482211,
      "tags": {
        "ele": "2673",
        "name": "Piza de Gherdenacia",
        "natural": "peak",
        "tourism": "viewpoint"
      }
    },
    {
      "type": "node",
      "id": 281163095,
      "lat": 46.1994171,
      "lon": 11.5107524,
      "tags": {
        "ele": "2605",
        "importance": "suburban",
        "name": "Cima delle Stellune",
        "natural": "peak",
        "source:ele": "3rd Military Mapping Survey of Austria-Hungary",
        "wikidata": "Q17625363",
        "wikipedia": "it:Cima delle Stellune"
      }
    },
    {
      "type": "node",
      "id": 281168694,
      "lat": 46.2439106,
      "lon": 11.6018329,
      "tags": {
        "ele": "2481",
        "importance": "urban",
        "name": "Pala del Cardinal",
        "natural": "peak",
        "source:ele": "Kompass 626 map",
        "wikidata": "Q30890768",
        "wikipedia": "it:Cardinal (monte)"
      }
    },
    {
      "type": "node",
      "id": 281996516,
      "lat": 46.1693463,
      "lon": 11.3924897,
      "tags": {
        "ele": "2489",
        "importance": "regional",
        "name": "Monte Croce",
        "name:de": "Kraizspitz",
        "natural": "peak",
        "source:ele": "3rd Military Mapping Survey of Austria-Hungary",
        "summit:cross": "yes",
        "summit:register": "yes",
        "wikidata": "Q3861496",
        "wikipedia": "it:Monte Croce (Trentino-Alto Adige)"
      }
    },
    {
      "type": "node",
      "id": 281998557,
      "lat": 46.1647739,
      "lon": 11.4192871,
      "tags": {
        "ele": "2225",
        "importance": "suburban",
        "name": "Cima Fornace",
        "natural": "peak",
        "wikidata": "Q31642990"
      }
    },
    {
      "type": "node",
      "id": 281999804,
      "lat": 46.1691553,
      "lon": 11.4219488,
      "tags": {
        "description": "esiste ometto con scritta \"Cima Cadino 2108 m\"",
        "ele": "2112",
        "name": "Monte Cadino",
        "natural": "peak",
        "wikidata": "Q31643003"
      }
    },
    {
      "type": "node",
      "id": 282201814,
      "lat": 46.2413696,
      "lon": 11.5035518,
      "tags": {
        "ele": "2229",
        "importance": "regional",
        "name": "Paion del Cermis",
        "natural": "peak",
        "source:ele": "3rd Military Mapping Survey of Austria-Hungary",
        "wikidata": "Q2576260",
        "wikipedia": "it:Alpe Cermis"
      }
    },
    {
      "type": "node",
      "id": 282202400,
      "lat": 46.2315971,
      "lon": 11.5005337,
      "tags": {
        "ele": "2401",
        "name": "Cimon del To della Trappola",
        "natural": "peak",
        "wikidata": "Q31643213"
      }
    },
    {
      "type": "node",
      "id": 282202699,
      "lat": 46.2168382,
      "lon": 11.5446191,
      "tags": {
        "ele": "2560",
        "importance": "suburban",
        "name": "Cimon di Lasteolo",
        "natural": "peak",
        "source:ele": "Kompass 626 map",
        "wikidata": "Q31642804",
        "wikipedia": "pl:Cimon di Lasteolo"
      }
    },
    {
      "type": "node",
      "id": 282202872,
      "lat": 46.2253087,
      "lon": 11.558882,
      "tags": {
        "ele": "2549",
        "importance": "urban",
        "name": "Cima Litegosa",
        "natural": "peak",
        "source:ele": "Kompass 626 map",
        "wikidata": "Q3676741",
        "wikipedia": "it:Cima Litegosa"
      }
    },
    {
      "type": "node",
      "id": 283551177,
      "lat": 46.7387791,
      "lon": 11.958311,
      "tags": {
        "ele": "2275",
        "name": "Kronplatz - Plan de Corones",
        "name:de": "Kronplatz",
        "name:it": "Plan de Corones",
        "natural": "peak",
        "wikidata": "Q1789966",
        "wikipedia": "it:Plan de Corones"
      }
    },
    {
      "type": "node",
      "id": 284562388,
      "lat": 44.4677245,
      "lon": 10.1494461,
      "tags": {
        "ele": "1575",
        "name": "Monte Caio",
        "natural": "peak",
        "wikidata": "Q3861271",
        "wikipedia": "it:Monte Caio"
      }
    },
    {
      "type": "node",
      "id": 285976286,
      "lat": 46.1318084,
      "lon": 11.2894132,
      "tags": {
        "ele": "1955",
        "name": "Dosso di Costalta",
        "natural": "peak",
        "summit:cross": "yes",
        "wikidata": "Q3714463",
        "wikipedia": "it:Dosso di Costalta"
      }
    },
    {
      "type": "node",
      "id": 286281497,
      "lat": 46.3810697,
      "lon": 11.5750434,
      "tags": {
        "alt_name:de": "Westliche Latemarspitze",
        "alt_name:it": "Torre Diamantidi",
        "ele": "2842",
        "importance": "regional",
        "loc_name:de": "Großer Latemarturm",
        "name": "Cimon del Latemar - Diamantiditurm",
        "name:de": "Diamantiditurm",
        "name:en": "Diamantidi Tower",
        "name:it": "Cimon del Latemar",
        "natural": "peak",
        "old_name": "Latemar-Hauptturm",
        "prominence": "1097",
        "wikidata": "Q593456",
        "wikipedia": "it:Cimon del Latemar"
      }
    },
    {
      "type": "node",
      "id": 286281609,
      "lat": 46.3825989,
      "lon": 11.5839568,
      "tags": {
        "ele": "2801",
        "name": "Schenòn del Latemar - Östliche Latemarspitze",
        "name:de": "Östliche Latemarspitze",
        "name:it": "Schenòn del Latemar",
        "natural": "peak",
        "wikidata": "Q1806874"
      }
    },
    {
      "type": "node",
      "id": 286283884,
      "lat": 46.140067,
      "lon": 12.0099,
      "tags": {
        "ele": "2186",
        "name": "Monte Pizzocco",
        "natural": "peak",
        "summit:cross": "yes",
        "wikidata": "Q3906047",
        "wikipedia": "it:Pizzocco"
      }
    },
    {
      "type": "node",
      "id": 286954450,
      "lat": 46.1629253,
      "lon": 11.480299,
      "tags": {
        "ele": "2368",
        "importance": "suburban",
        "name": "Monte Valpiana",
        "natural": "peak",
        "source:ele": "IGM Trentino e Carta Topografica Tabacco 058 ed.2015"
      }
    },
    {
      "type": "node",
      "id": 287060302,
      "lat": 46.2385052,
      "lon": 13.2601951,
      "tags": {
        "ele": "872",
        "name": "La Bernadia",
        "name:fur": "la Bernadie",
        "natural": "peak"
      }
    },
    {
      "type": "node",
      "id": 287275551,
      "lat": 46.2165917,
      "lon": 13.1219274,
      "tags": {
        "ele": "335",
        "name": "Monte di Buja",
        "name:fur": "Mont di Buie",
        "name:it": "Monte di Buja",
        "natural": "peak"
      }
    },
    {
      "type": "node",
      "id": 287990721,
      "lat": 46.3960196,
      "lon": 10.9313397,
      "tags": {
        "ele": "2181",
        "name": "Monte Parol",
        "natural": "peak"
      }
    },
    {
      "type": "node",
      "id": 289247845,
      "lat": 46.1304976,
      "lon": 11.2507084,
      "tags": {
        "alt_name": "Dòs Pìciol",
        "ele": "1075",
        "loc_name": "Dòs de Miöla",
        "name": "Dosso di Miola",
        "natural": "peak",
        "tourism": "viewpoint",
        "wikidata": "Q31675299"
      }
    },
    {
      "type": "node",
      "id": 289307318,
      "lat": 45.6154618,
      "lon": 13.8767493,
      "tags": {
        "ele": "316",
        "name": "Cippo Comici",
        "natural": "peak",
        "summit:cross": "no",
        "summit:register": "no"
      }
    },
    {
      "type": "node",
      "id": 289618116,
      "lat": 45.9004283,
      "lon": 11.1162205,
      "tags": {
        "ele": "1603",
        "name": "Monte Finonchio",
        "natural": "peak",
        "wikidata": "Q3861543",
        "wikipedia": "it:Monte Finonchio"
      }
    },
    {
      "type": "node",
      "id": 289846512,
      "lat": 46.5759336,
      "lon": 12.129961,
      "tags": {
        "ele": "2240",
        "name": "Punta Fiames",
        "natural": "peak",
        "source": "survey",
        "summit:cross": "yes"
      }
    },
    {
      "type": "node",
      "id": 289851892,
      "lat": 46.5857888,
      "lon": 12.0976984,
      "tags": {
        "ele": "2165",
        "name": "Col Rosà",
        "natural": "peak",
        "summit:register": "yes"
      }
    },
    {
      "type": "node",
      "id": 289868279,
      "lat": 46.1540984,
      "lon": 11.3635196,
      "tags": {
        "alt_name": "Rojoch",
        "ele": "2414",
        "importance": "regional",
        "name": "Monte Ruioch",
        "natural": "peak",
        "summit:cross": "yes",
        "summit:register": "yes",
        "wikidata": "Q31635916"
      }
    },
    {
      "type": "node",
      "id": 290780687,
      "lat": 46.6819857,
      "lon": 11.0242082,
      "tags": {
        "ele": "2258",
        "name": "Orenknott",
        "natural": "peak",
        "wikidata": "Q27882394"
      }
    },
    {
      "type": "node",
      "id": 290995382,
      "lat": 47.0422793,
      "lon": 12.1397837,
      "tags": {
        "ele": "2074",
        "name": "Rötkreuz",
        "natural": "peak"
      }
    },
    {
      "type": "node",
      "id": 292092355,
      "lat": 46.3030588,
      "lon": 11.4163781,
      "tags": {
        "ele": "1416",
        "name": "Solombo",
        "natural": "peak"
      }
    },
    {
      "type": "node",
      "id": 292238630,
      "lat": 46.4024316,
      "lon": 11.712964,
      "tags": {
        "ele": "2550",
        "name": "Cima Undici",
        "name:lld": "Sas da le Undesc",
        "natural": "peak",
        "wikidata": "Q31644666"
      }
    },
    {
      "type": "node",
      "id": 292512762,
      "lat": 46.752977,
      "lon": 11.8252006,
      "tags": {
        "ele": "2190",
        "name": "Campill - Campiglio",
        "name:de": "Campill",
        "name:it": "Campiglio",
        "natural": "peak",
        "tourism": "viewpoint",
        "wikidata": "Q31668906"
      }
    },
    {
      "type": "node",
      "id": 292512982,
      "lat": 46.7628514,
      "lon": 11.8087573,
      "tags": {
        "alt_name:de": "Burgstall;Grabnerberg",
        "alt_name:it": "Giogo d'Asta;Cima Grava",
        "ele": "2194",
        "name": "Astjoch - Cima Lasta",
        "name:de": "Astjoch",
        "name:it": "Cima Lasta",
        "natural": "peak",
        "summit:cross": "yes",
        "wikidata": "Q29015759"
      }
    },
    {
      "type": "node",
      "id": 293695396,
      "lat": 46.6357213,
      "lon": 11.3046101,
      "tags": {
        "alt_name:de": "Stoaner Mandl",
        "ele": "2003",
        "name": "Stoanerne Mandln",
        "name:de": "Stoanerne Mandln",
        "name:en": "Stone men",
        "name:it": "Omini di pietra",
        "natural": "peak",
        "source": "https://flurnamen.natura.museum/",
        "summit:cross": "yes"
      }
    },
    {
      "type": "node",
      "id": 294126020,
      "lat": 46.6456728,
      "lon": 10.5180569,
      "tags": {
        "ele": "2373",
        "name": "Glurnser Köpfl - Monte di Glorenza",
        "name:de": "Glurnser Köpfl",
        "name:it": "Monte di Glorenza",
        "natural": "peak",
        "wikidata": "Q1532369"
      }
    },
    {
      "type": "node",
      "id": 294126021,
      "lat": 46.6343966,
      "lon": 10.5085227,
      "tags": {
        "ele": "2534",
        "name": "Plaschweller",
        "name:de": "Plaschweller",
        "name:it": "Monte Plagabella",
        "natural": "peak",
        "source": "https://maps.civis.bz.it"
      }
    },
    {
      "type": "node",
      "id": 294126023,
      "lat": 46.6153316,
      "lon": 10.4919833,
      "tags": {
        "ele": "2763",
        "name": "Piz Chavalatsch - Monte Cavallaccio",
        "name:de": "Piz Chavalatsch",
        "name:it": "Monte Cavallaccio",
        "natural": "peak",
        "summit:cross": "yes",
        "summit:register": "yes",
        "wikidata": "Q525419",
        "wikipedia": "it:Monte Cavallaccio"
      }
    },
    {
      "type": "node",
      "id": 295461697,
      "lat": 45.9791937,
      "lon": 11.4471944,
      "tags": {
        "ele": "2310",
        "name": "Cima Portule",
        "natural": "peak",
        "summit:cross": "yes",
        "wikidata": "Q768217",
        "wikipedia": "it:Cima Portule"
      }
    },
    {
      "type": "node",
      "id": 297049604,
      "lat": 45.8849808,
      "lon": 10.8745873,
      "tags": {
        "ele": "376",
        "name": "Monte Brione",
        "natural": "peak",
        "wikidata": "Q1665141"
      }
    },
    {
      "type": "node",
      "id": 298120762,
      "lat": 46.1399965,
      "lon": 10.7163162,
      "tags": {
        "ele": "2343",
        "name": "Spadalone",
        "natural": "peak",
        "wikidata": "Q31636754"
      }
    },
    {
      "type": "node",
      "id": 298291892,
      "lat": 46.1825527,
      "lon": 10.6849162,
      "tags": {
        "ele": "2582",
        "name": "Cima Tamalè",
        "natural": "peak"
      }
    },
    {
      "type": "node",
      "id": 298291895,
      "lat": 46.1898703,
      "lon": 10.6638657,
      "tags": {
        "ele": "3016",
        "loc_name": "Cimon de le Gere",
        "name": "Cimon delle Gere",
        "natural": "peak",
        "wikidata": "Q31636641"
      }
    },
    {
      "type": "node",
      "id": 298291974,
      "lat": 46.1352906,
      "lon": 10.5859015,
      "tags": {
        "ele": "3406",
        "name": "Corno di Cavento",
        "natural": "peak",
        "wikidata": "Q3693772",
        "wikipedia": "it:Corno di Cavento"
      }
    },
    {
      "type": "node",
      "id": 298291985,
      "lat": 46.1797485,
      "lon": 10.5710064,
      "tags": {
        "ele": "3033",
        "name": "Lobbia di Mezzo",
        "natural": "peak"
      }
    },
    {
      "type": "node",
      "id": 298467635,
      "lat": 46.5064916,
      "lon": 10.6913201,
      "tags": {
        "ele": "2586",
        "name": "Pederköpfl - Dosso di Peder",
        "name:de": "Pederköpfl",
        "name:it": "Dosso di Peder",
        "natural": "peak",
        "summit:cross": "no",
        "summit:register": "no"
      }
    },
    {
      "type": "node",
      "id": 301458487,
      "lat": 45.9088496,
      "lon": 10.8242256,
      "tags": {
        "ele": "841",
        "name": "Monte Tombio",
        "natural": "peak"
      }
    },
    {
      "type": "node",
      "id": 301549910,
      "lat": 46.8595389,
      "lon": 11.686882,
      "tags": {
        "ele": "2510",
        "name": "Gitsch - Monte Cuzzo",
        "name:de": "Gitsch",
        "name:it": "Monte Cuzzo",
        "natural": "peak",
        "wikidata": "Q1527722",
        "wikipedia": "it:Monte Cuzzo"
      }
    },
    {
      "type": "node",
      "id": 301563250,
      "lat": 45.9552217,
      "lon": 10.8336682,
      "tags": {
        "ele": "1803",
        "name": "Monte Misone",
        "natural": "peak",
        "prominence": "1040",
        "summit:cross": "yes",
        "summit:register": "no",
        "wikidata": "Q31635247"
      }
    },
    {
      "type": "node",
      "id": 301861034,
      "lat": 46.9774608,
      "lon": 11.9946726,
      "tags": {
        "ele": "2105",
        "name": "Breite Rast",
        "natural": "peak"
      }
    },
    {
      "type": "node",
      "id": 301869241,
      "lat": 46.967148,
      "lon": 11.8837583,
      "tags": {
        "ele": "2273",
        "name": "Schönberg - Montebello",
        "name:de": "Schönberg",
        "name:it": "Montebello",
        "natural": "peak",
        "summit:cross": "yes",
        "summit:register": "yes"
      }
    },
    {
      "type": "node",
      "id": 302129853,
      "lat": 46.5440663,
      "lon": 10.8588813,
      "tags": {
        "ele": "3257",
        "name": "Hasenöhrl - L'Orecchia di Lepre",
        "name:de": "Hasenöhrl",
        "name:it": "L'Orecchia di Lepre",
        "natural": "peak",
        "wikidata": "Q1588411",
        "wikipedia": "it:Orecchia di Lepre"
      }
    },
    {
      "type": "node",
      "id": 304859594,
      "lat": 45.7239595,
      "lon": 11.1300888,
      "tags": {
        "ele": "2259",
        "name": "Cima Carega",
        "natural": "peak",
        "prominence": "1185",
        "summit:cross": "yes",
        "wikidata": "Q3676726",
        "wikipedia": "it:Cima Carega"
      }
    },
    {
      "type": "node",
      "id": 305607679,
      "lat": 45.8309637,
      "lon": 11.9795281,
      "tags": {
        "ele": "473",
        "loc_name": "Curt",
        "name": "Monte Sulder",
        "natural": "peak"
      }
    },
    {
      "type": "node",
      "id": 305695022,
      "lat": 45.82464,
      "lon": 11.96238,
      "tags": {
        "ele": "416",
        "name": "Col Mostaccin",
        "natural": "peak"
      }
    },
    {
      "type": "node",
      "id": 305744219,
      "lat": 45.3384141,
      "lon": 11.6828798,
      "tags": {
        "alt_name": "Rocca Pendice",
        "ele": "305",
        "name": "Monte Pendice",
        "natural": "peak",
        "source:alt_name": "Wikipedia",
        "wikidata": "Q3939405",
        "wikipedia": "it:Rocca Pendice"
      }
    },
    {
      "type": "node",
      "id": 306134396,
      "lat": 45.9908581,
      "lon": 11.0394734,
      "tags": {
        "ele": "2140",
        "importance": "regional",
        "name": "Dos d'Abramo",
        "natural": "peak"
      }
    },
    {
      "type": "node",
      "id": 306134397,
      "lat": 45.9958557,
      "lon": 11.0448082,
      "tags": {
        "ele": "2102",
        "importance": "regional",
        "name": "Cima Verde",
        "natural": "peak",
        "wikidata": "Q31634685"
      }
    },
    {
      "type": "node",
      "id": 306966631,
      "lat": 44.0978973,
      "lon": 10.8493504,
      "tags": {
        "ele": "1732",
        "importance": "regional",
        "name": "Poggio delle Ignude",
        "natural": "peak",
        "wikidata": "Q3907052",
        "wikipedia": "it:Poggio delle Ignude"
      }
    },
    {
      "type": "node",
      "id": 307100248,
      "lat": 45.332289,
      "lon": 11.6692029,
      "tags": {
        "ele": "245",
        "name": "Monte delle Forche",
        "natural": "peak"
      }
    },
    {
      "type": "node",
      "id": 307253108,
      "lat": 46.1776827,
      "lon": 10.9624745,
      "tags": {
        "direction": "0-360",
        "ele": "2442",
        "name": "Pizzo Gallino",
        "natural": "peak",
        "reg_name": "Piz Galin",
        "summit:cross": "yes",
        "summit:register": "yes",
        "tourism": "viewpoint",
        "wikidata": "Q3905936",
        "wikipedia": "it:Piz Galin"
      }
    },
    {
      "type": "node",
      "id": 307268081,
      "lat": 46.2551843,
      "lon": 10.785193,
      "tags": {
        "ele": "2678",
        "name": "Monte Nambino",
        "natural": "peak",
        "wikidata": "Q31644747"
      }
    },
    {
      "type": "node",
      "id": 307278012,
      "lat": 46.3547782,
      "lon": 12.417679,
      "tags": {
        "ele": "2556",
        "name": "Cima Laste",
        "name:fur": "Cime Lastis",
        "natural": "peak",
        "wikidata": "Q31676327"
      }
    },
    {
      "type": "node",
      "id": 307286033,
      "lat": 46.4361773,
      "lon": 10.8613224,
      "tags": {
        "ele": "2701",
        "name": "Nebelspitz - Cima Tuatti",
        "name:de": "Nebelspitz",
        "name:it": "Cima Tuatti",
        "natural": "peak",
        "wikidata": "Q3676772",
        "wikipedia": "it:Cima Tuatti"
      }
    },
    {
      "type": "node",
      "id": 307287040,
      "lat": 46.4481301,
      "lon": 10.6223044,
      "tags": {
        "alt_name:de": "Hintere Zufallspitze",
        "alt_name:it": "Cima Cevedale",
        "ele": "3757",
        "name": "Südliche Zufallspitze - Cevedale II",
        "name:de": "Südliche Zufallspitze",
        "name:it": "Cevedale II",
        "natural": "peak",
        "wikidata": "Q18711086",
        "wikipedia": "de:Zufallspitzen"
      }
    },
    {
      "type": "node",
      "id": 307287868,
      "lat": 46.4537826,
      "lon": 10.6893771,
      "tags": {
        "ele": "3386",
        "name": "Cima Venezia - Veneziaspitze",
        "name:de": "Veneziaspitze",
        "name:it": "Cima Venezia",
        "natural": "peak",
        "wikidata": "Q2512894",
        "wikipedia": "it:Cima Venezia"
      }
    },
    {
      "type": "node",
      "id": 307292232,
      "lat": 46.5089192,
      "lon": 11.828299,
      "tags": {
        "ele": "3152",
        "name": "Piz Boè",
        "natural": "peak",
        "prominence": "932",
        "summit:cross": "yes",
        "wikidata": "Q1478439",
        "wikipedia": "it:Piz Boè"
      }
    },
    {
      "type": "node",
      "id": 307292288,
      "lat": 46.5106383,
      "lon": 11.7329941,
      "tags": {
        "alt_name:it": "Sasso Levante",
        "ele": "3114",
        "name": "Punta Grohmann - Grohmannspitze",
        "name:de": "Grohmannspitze",
        "name:it": "Punta Grohmann",
        "name:lld": "Sas da duman",
        "natural": "peak",
        "source:ele": "basemap",
        "wikidata": "Q635030",
        "wikipedia": "it:Punta Grohmann"
      }
    },
    {
      "type": "node",
      "id": 307292644,
      "lat": 46.5141372,
      "lon": 11.715784,
      "tags": {
        "ele": "2958",
        "name": "Sasplat - Plattkofel - Sasso Piatto",
        "name:de": "Plattkofel",
        "name:it": "Sasso Piatto",
        "name:lld": "Sasplat",
        "natural": "peak",
        "summit:cross": "yes",
        "wikidata": "Q365711",
        "wikimedia_commons": "Category:Plattkofel",
        "wikipedia": "it:Sassopiatto"
      }
    },
    {
      "type": "node",
      "id": 307292986,
      "lat": 46.5214043,
      "lon": 10.6411545,
      "tags": {
        "ele": "3422",
        "name": "Plattenspitze / Punta delle Laste",
        "name:de": "Plattenspitze",
        "name:it": "Punta delle Laste",
        "natural": "peak",
        "wikidata": "Q26265767"
      }
    },
    {
      "type": "node",
      "id": 307293530,
      "lat": 46.5330314,
      "lon": 11.9156425,
      "tags": {
        "ele": "2109",
        "name": "Pralongiá",
        "name:lld": "Pralongiá",
        "natural": "peak"
      }
    },
    {
      "type": "node",
      "id": 307293558,
      "lat": 46.5177941,
      "lon": 11.8519943,
      "tags": {
        "ele": "2517",
        "name": "Col de Stagn",
        "name:lld": "Col de Stagn",
        "natural": "peak"
      }
    },
    {
      "type": "node",
      "id": 307294026,
      "lat": 46.5456136,
      "lon": 11.987729,
      "tags": {
        "ele": "2283",
        "name": "Cé de Salares",
        "name:lld": "Cé de Salares",
        "natural": "peak"
      }
    },
    {
      "type": "node",
      "id": 307294212,
      "lat": 46.5515116,
      "lon": 12.0141774,
      "tags": {
        "ele": "2989",
        "name": "Piza de Medo - Punta di mezzo",
        "name:it": "Punta di mezzo",
        "name:lld": "Piza de Medo",
        "natural": "peak"
      }
    },
    {
      "type": "node",
      "id": 307297638,
      "lat": 46.6133005,
      "lon": 11.781847,
      "tags": {
        "ele": "2924",
        "name": "Wasserkofel - Sas dal'Ega - Furchetta Grande",
        "name:de": "Wasserkofel",
        "name:it": "Furchetta Grande",
        "name:lld": "Sas dal'Ega",
        "natural": "peak",
        "wikidata": "Q136261798"
      }
    },
    {
      "type": "node",
      "id": 307297650,
      "lat": 46.6092876,
      "lon": 11.7668196,
      "tags": {
        "ele": "3025",
        "name": "Sas Rigais",
        "name:de": "Sass Rigais",
        "name:it": "Sass Rigais",
        "name:lld": "Sas Rigais",
        "natural": "peak",
        "prominence": "336",
        "summit:cross": "yes",
        "wikidata": "Q1935898",
        "wikipedia": "de:Sass Rigais"
      }
    },
    {
      "type": "node",
      "id": 307297664,
      "lat": 46.6037551,
      "lon": 11.7557292,
      "tags": {
        "ele": "2832",
        "name": "Geislerspitze - Gran Odla - Grande Odla",
        "name:de": "Geislerspitze",
        "name:it": "Grande Odla",
        "name:lld": "Gran Odla",
        "natural": "peak",
        "note": "there is no italian or german Wikipedia article, so I addet no wikipedia=de.... or wikipedia=it... key!",
        "wikidata": "Q31644131",
        "wikipedia": "ceb:Gran Odla"
      }
    },
    {
      "type": "node",
      "id": 307297671,
      "lat": 46.6144819,
      "lon": 11.951485,
      "tags": {
        "ele": "2907",
        "man_made": "cross",
        "name": "Le Ciaval",
        "name:de": "Heiligkreuzkofel",
        "name:it": "Monte Cavallo",
        "name:lld": "L'Ciaval",
        "natural": "peak",
        "tourism": "viewpoint",
        "wikidata": "Q8545671",
        "wikimedia_commons": "Category:Heiligkreuzkofel",
        "wikipedia": "de:Heiligkreuzkofel"
      }
    },
    {
      "type": "node",
      "id": 307297708,
      "lat": 46.5654516,
      "lon": 11.9983647,
      "tags": {
        "ele": "2069",
        "name": "Col de Locia",
        "natural": "peak"
      }
    },
    {
      "type": "node",
      "id": 307297724,
      "lat": 46.5575563,
      "lon": 12.0026699,
      "tags": {
        "ele": "2654",
        "name": "Piza dl Lech",
        "natural": "peak"
      }
    },
    {
      "type": "node",
      "id": 307298892,
      "lat": 46.6304112,
      "lon": 12.3151777,
      "tags": {
        "ele": "2744",
        "name": "Monte Paterno - Paternkofel",
        "name:de": "Paternkofel",
        "name:it": "Monte Paterno",
        "natural": "peak",
        "prominence": "304",
        "summit:cross": "yes",
        "summit:register": "yes",
        "wikidata": "Q681749",
        "wikipedia": "it:Monte Paterno"
      }
    },
    {
      "type": "node",
      "id": 307300802,
      "lat": 46.6569759,
      "lon": 12.6906419,
      "tags": {
        "ele": "2524",
        "name": "Steinkarspitz / Monte Antola",
        "name:de": "Steinkarspitz",
        "name:it": "Monte Antola",
        "natural": "peak",
        "wikidata": "Q31660490"
      }
    },
    {
      "type": "node",
      "id": 307302065,
      "lat": 46.6765592,
      "lon": 11.4561717,
      "tags": {
        "ele": "2160",
        "name": "Guflreiteck - Monte Covolo",
        "name:de": "Guflreiteck",
        "name:it": "Monte Covolo",
        "natural": "peak"
      }
    },
    {
      "type": "node",
      "id": 307302677,
      "lat": 46.6303454,
      "lon": 11.9810725,
      "tags": {
        "ele": "2968",
        "man_made": "cross",
        "name": "Piza dales Nü",
        "name:de": "Neuner (Spitze)",
        "name:it": "Cima Nove (Sasso delle Nove)",
        "name:lld": "Sas dales Nü",
        "natural": "peak",
        "tourism": "viewpoint",
        "wikidata": "Q739724",
        "wikimedia_commons": "Category:Neuner (Wengen)",
        "wikipedia": "de:Neuner (Fanesgruppe)"
      }
    },
    {
      "type": "node",
      "id": 307302927,
      "lat": 46.6977434,
      "lon": 11.8183826,
      "tags": {
        "ele": "2280",
        "name": "Alfreider Joch - Giogo d'Alfarei",
        "name:de": "Alfreider Joch",
        "name:it": "Giogo d'Alfarei",
        "name:lld": "Ju d Alfarei",
        "natural": "peak"
      }
    },
    {
      "type": "node",
      "id": 307303031,
      "lat": 46.7017954,
      "lon": 11.2755741,
      "tags": {
        "ele": "2680",
        "name": "Vorderer Verdinser Plattenspitz - Laste di Verdins (di fuori)",
        "name:de": "Vorderer Verdinser Plattenspitz",
        "name:it": "Laste di Verdins (di fuori)",
        "natural": "peak"
      }
    },
    {
      "type": "node",
      "id": 307303072,
      "lat": 46.6609483,
      "lon": 11.2844194,
      "tags": {
        "ele": "2027",
        "name": "Maiser Rast - Riposo di Maia",
        "name:de": "Maiser Rast",
        "name:it": "Riposo di Maia",
        "natural": "peak"
      }
    },
    {
      "type": "node",
      "id": 307303167,
      "lat": 46.7052599,
      "lon": 10.4088383,
      "tags": {
        "ele": "3134",
        "name": "Foratrida",
        "natural": "peak",
        "source": "https://map.schweizmobil.ch",
        "wikidata": "Q22490333"
      }
    },
    {
      "type": "node",
      "id": 307303384,
      "lat": 46.7090722,
      "lon": 11.5842781,
      "tags": {
        "ele": "2356",
        "name": "Hundskopf - Cima Cane",
        "name:de": "Hundskopf",
        "name:it": "Cima Cane",
        "natural": "peak"
      }
    },
    {
      "type": "node",
      "id": 307303444,
      "lat": 46.7102075,
      "lon": 11.5785461,
      "tags": {
        "ele": "2391",
        "name": "Radlseenock - Punta del Lago Rodella",
        "name:de": "Radlseenock",
        "name:it": "Punta del Lago Rodella",
        "natural": "peak"
      }
    },
    {
      "type": "node",
      "id": 307303482,
      "lat": 46.7121188,
      "lon": 11.5562543,
      "tags": {
        "alt_name:de": "Kühberg",
        "ele": "2429",
        "name": "Stangila - Monte delle Vacche",
        "name:de": "Stangila",
        "name:it": "Monte delle Vacche",
        "natural": "peak",
        "source": "Geobrowser der Autonomen Provinz Bozen",
        "summit:cross": "yes"
      }
    },
    {
      "type": "node",
      "id": 307303489,
      "lat": 46.7131756,
      "lon": 11.5524711,
      "tags": {
        "ele": "2421",
        "name": "Eiskofel",
        "name:de": "Eiskofel",
        "natural": "peak",
        "source": "Geobrowser der Autonomen Provinz Bozen"
      }
    },
    {
      "type": "node",
      "id": 307303496,
      "lat": 46.6766491,
      "lon": 12.0563558,
      "tags": {
        "alt_name:it": "Cima Cadin di Sennes",
        "ele": "2659",
        "name": "Le Seneser - Senneser Karspitze - Punta Quaira di Sennes",
        "name:de": "Senneser Karspitze",
        "name:it": "Punta Quaira di Sennes",
        "name:lld": "Le Seneser",
        "natural": "peak"
      }
    },
    {
      "type": "node",
      "id": 307303616,
      "lat": 46.7008257,
      "lon": 12.4138337,
      "tags": {
        "ele": "2550",
        "name": "Hornischegg - Monte Arnese",
        "name:de": "Hornischegg",
        "name:it": "Monte Arnese",
        "natural": "peak",
        "summit:cross": "yes",
        "wikidata": "Q31660994"
      }
    },
    {
      "type": "node",
      "id": 307303631,
      "lat": 46.6990907,
      "lon": 12.4270422,
      "tags": {
        "ele": "2580",
        "name": "Hollbrucker Spitze - Cima di Pontegrotta",
        "name:de": "Hollbrucker Spitze",
        "name:it": "Cima di Pontegrotta",
        "natural": "peak",
        "summit:cross": "yes",
        "wikidata": "Q21868063"
      }
    },
    {
      "type": "node",
      "id": 307303649,
      "lat": 46.6901926,
      "lon": 12.4461393,
      "tags": {
        "ele": "2592",
        "name": "Demutspitze - La Muta",
        "name:de": "Demutspitze",
        "name:it": "La Muta",
        "natural": "peak",
        "wikidata": "Q31628690"
      }
    },
    {
      "type": "node",
      "id": 307303747,
      "lat": 46.6679716,
      "lon": 12.3176,
      "tags": {
        "climbing": "route_top",
        "ele": "3152",
        "loc_name": "Schuster",
        "man_made": "cross",
        "name": "Dreischusterspitze - Punta dei Tre Scarperi",
        "name:de": "Dreischusterspitze",
        "name:it": "Punta dei Tre Scarperi",
        "natural": "peak",
        "prominence": "1393",
        "summit:cross": "yes",
        "summit:register": "yes",
        "wikidata": "Q380419",
        "wikipedia": "de:Dreischusterspitze"
      }
    },
    {
      "type": "node",
      "id": 307303758,
      "lat": 46.6571141,
      "lon": 12.3165155,
      "tags": {
        "ele": "2956",
        "man_made": "cross",
        "name": "Schusterplatte - Lastron dei Scarperi",
        "name:de": "Schusterplatte",
        "name:it": "Lastron dei Scarperi",
        "natural": "peak",
        "summit:cross": "yes",
        "summit:register": "no",
        "wikidata": "Q31628663"
      }
    },
    {
      "type": "node",
      "id": 307303956,
      "lat": 46.6956577,
      "lon": 11.4920108,
      "tags": {
        "ele": "2394",
        "name": "Jocherer Berg - Monte del Passo",
        "name:de": "Jocherer Berg",
        "name:it": "Monte del Passo",
        "natural": "peak"
      }
    },
    {
      "type": "node",
      "id": 307303972,
      "lat": 46.7062821,
      "lon": 11.4934185,
      "tags": {
        "ele": "2563",
        "name": "Samspitze",
        "natural": "peak"
      }
    },
    {
      "type": "node",
      "id": 307303996,
      "lat": 46.7239304,
      "lon": 11.5113608,
      "tags": {
        "ele": "2519",
        "name": "Geißhorn - Cima di Capra",
        "name:de": "Geißhorn",
        "name:it": "Cima di Capra",
        "natural": "peak",
        "summit:cross": "yes",
        "summit:register": "yes"
      }
    },
    {
      "type": "node",
      "id": 307305240,
      "lat": 46.772587,
      "lon": 11.1474116,
      "tags": {
        "ele": "2868",
        "name": "Kolbenspitze - La Clava",
        "name:de": "Kolbenspitze",
        "name:it": "La Clava",
        "natural": "peak",
        "old_name:1858": "Kolbenspitz;Kolben;Schneespitz",
        "reg_name": "Kolbner",
        "source": "survey",
        "summit:cross": "yes",
        "wikidata": "Q2302812"
      }
    },
    {
      "type": "node",
      "id": 307305646,
      "lat": 46.7222992,
      "lon": 12.3776227,
      "tags": {
        "ele": "2078",
        "name": "Rauchegg",
        "natural": "peak"
      }
    },
    {
      "type": "node",
      "id": 307305653,
      "lat": 46.7806788,
      "lon": 11.4967367,
      "tags": {
        "ele": "2706",
        "name": "Tagewaldhorn - Corno di Tramin",
        "name:de": "Tagewaldhorn",
        "name:it": "Corno di Tramin",
        "natural": "peak",
        "summit:cross": "yes",
        "wikidata": "Q907962",
        "wikipedia": "it:Corno di Tramin"
      }
    },
    {
      "type": "node",
      "id": 307305674,
      "lat": 46.7459302,
      "lon": 11.5079709,
      "tags": {
        "ele": "2590",
        "name": "Liffelspitz - Monte Livolo",
        "name:de": "Liffelspitz",
        "name:it": "Monte Livolo",
        "natural": "peak",
        "summit:cross": "yes"
      }
    },
    {
      "type": "node",
      "id": 307305800,
      "lat": 46.7802421,
      "lon": 11.5294286,
      "tags": {
        "ele": "2560",
        "name": "Kreuzjoch - Monte della Croce",
        "name:de": "Kreuzjoch",
        "name:it": "Monte della Croce",
        "natural": "peak"
      }
    },
    {
      "type": "node",
      "id": 307305822,
      "lat": 46.7712866,
      "lon": 11.516549,
      "tags": {
        "ele": "2544",
        "name": "Marchspitze - Cima Mercato",
        "name:de": "Marchspitze",
        "name:it": "Cima Mercato",
        "natural": "peak"
      }
    },
    {
      "type": "node",
      "id": 307306090,
      "lat": 46.791449,
      "lon": 12.2807583,
      "tags": {
        "ele": "2615",
        "name": "Gaishörndl",
        "name:de": "Gaishörndl",
        "name:it": "Cornetto di Fana",
        "natural": "peak",
        "wikidata": "Q31661637"
      }
    },
    {
      "type": "node",
      "id": 307307170,
      "lat": 46.8088189,
      "lon": 11.4828741,
      "tags": {
        "ele": "2526",
        "name": "Tatschspitze - Montaccio di Pennes",
        "name:de": "Tatschspitze",
        "name:it": "Montaccio di Pennes",
        "natural": "peak",
        "wikidata": "Q31673069"
      }
    },
    {
      "type": "node",
      "id": 307307523,
      "lat": 46.8048702,
      "lon": 11.4663223,
      "tags": {
        "ele": "2304",
        "name": "Niedereck - Dosso Basso",
        "name:de": "Niedereck",
        "name:it": "Dosso Basso",
        "natural": "peak"
      }
    },
    {
      "type": "node",
      "id": 307307773,
      "lat": 46.8271248,
      "lon": 11.5058078,
      "tags": {
        "ele": "1952",
        "name": "Onsberg - Monte Ones",
        "name:de": "Onsberg",
        "name:it": "Monte Ones",
        "natural": "peak"
      }
    },
    {
      "type": "node",
      "id": 307307863,
      "lat": 46.8430125,
      "lon": 11.9142759,
      "tags": {
        "ele": "2050",
        "name": "Scheibe",
        "natural": "peak",
        "wikidata": "Q31804594"
      }
    },
    {
      "type": "node",
      "id": 307308076,
      "lat": 46.8633504,
      "lon": 11.9025753,
      "tags": {
        "ele": "2418",
        "name": "Windeck - Cima del Vento",
        "name:de": "Windeck",
        "name:it": "Cima del Vento",
        "natural": "peak",
        "wikidata": "Q31667901"
      }
    },
    {
      "type": "node",
      "id": 307308095,
      "lat": 46.8644979,
      "lon": 11.8634288,
      "tags": {
        "ele": "2438",
        "name": "Putzenhöhe - Cime di Pozzo",
        "name:de": "Putzenhöhe",
        "name:it": "Cime di Pozzo",
        "natural": "peak",
        "summit:cross": "yes",
        "wikidata": "Q31667827"
      }
    },
    {
      "type": "node",
      "id": 307308152,
      "lat": 46.8677211,
      "lon": 11.8233167,
      "tags": {
        "ele": "2484",
        "name": "Mutenock - Monte Mutta",
        "name:de": "Mutenock",
        "name:it": "Monte Mutta",
        "natural": "peak",
        "summit:cross": "yes",
        "wikidata": "Q31667847"
      }
    },
    {
      "type": "node",
      "id": 307308155,
      "lat": 46.870631,
      "lon": 11.8445255,
      "tags": {
        "ele": "2351",
        "name": "Zwölferspitz - Cima Dodici",
        "name:de": "Zwölferspitz",
        "name:it": "Cima Dodici",
        "natural": "peak",
        "wikidata": "Q31667865"
      }
    },
    {
      "type": "node",
      "id": 307308157,
      "lat": 46.8737526,
      "lon": 12.2181411,
      "tags": {
        "ele": "2727",
        "name": "Hinterbergkofel - Monte di Dentro",
        "name:de": "Hinterbergkofel",
        "name:it": "Monte di Dentro",
        "natural": "peak",
        "wikidata": "Q31671384"
      }
    },
    {
      "type": "node",
      "id": 307308373,
      "lat": 46.8674049,
      "lon": 11.9090562,
      "tags": {
        "ele": "2354",
        "name": "Kandlkopf",
        "natural": "peak"
      }
    },
    {
      "type": "node",
      "id": 307308378,
      "lat": 46.8764326,
      "lon": 11.9136694,
      "tags": {
        "ele": "2205",
        "name": "Rixer Nock",
        "natural": "peak",
        "wikidata": "Q31668048"
      }
    },
    {
      "type": "node",
      "id": 307308431,
      "lat": 46.8703022,
      "lon": 11.7556008,
      "tags": {
        "ele": "2738",
        "loc_name": "Hegedex",
        "name": "Eidechsspitze - Cima di Terento",
        "name:de": "Eidechsspitze",
        "name:it": "Cima di Terento",
        "natural": "peak",
        "summit:cross": "yes",
        "wikidata": "Q19696237",
        "wikipedia": "de:Eidechsspitze"
      }
    },
    {
      "type": "node",
      "id": 307308450,
      "lat": 46.8802132,
      "lon": 11.7699427,
      "tags": {
        "ele": "2756",
        "name": "Kleiner Grubbachspitz - Rocca dei Camosci",
        "name:de": "Kleiner Grubbachspitz",
        "name:it": "Rocca dei Camosci",
        "natural": "peak",
        "wikidata": "Q31668235"
      }
    },
    {
      "type": "node",
      "id": 307308457,
      "lat": 46.8825081,
      "lon": 11.7697254,
      "tags": {
        "ele": "2809",
        "name": "Hochgrubbachspitz - Monte Gruppo",
        "name:de": "Hochgrubbachspitz",
        "name:it": "Monte Gruppo",
        "natural": "peak",
        "wikidata": "Q31672573"
      }
    },
    {
      "type": "node",
      "id": 307308933,
      "lat": 46.906951,
      "lon": 11.5835828,
      "tags": {
        "ele": "2989",
        "name": "Ebengrubenspitz - Cima di Pianbello",
        "name:de": "Ebengrubenspitz",
        "name:it": "Cima di Pianbello",
        "natural": "peak",
        "wikidata": "Q3717855"
      }
    },
    {
      "type": "node",
      "id": 307308940,
      "lat": 46.8838945,
      "lon": 11.5884051,
      "tags": {
        "ele": "2584",
        "name": "Blauer Stoan",
        "natural": "peak"
      }
    },
    {
      "type": "node",
      "id": 307308947,
      "lat": 46.878022,
      "lon": 11.5941355,
      "tags": {
        "ele": "2696",
        "name": "Schwarzenstoan",
        "natural": "peak"
      }
    },
    {
      "type": "node",
      "id": 307308958,
      "lat": 46.8543832,
      "lon": 11.5895385,
      "tags": {
        "ele": "2355",
        "name": "Schellenberg",
        "natural": "peak",
        "wikidata": "Q3861989",
        "wikipedia": "it:Monte Schellenberg"
      }
    },
    {
      "type": "node",
      "id": 307308970,
      "lat": 46.8424915,
      "lon": 11.5928883,
      "tags": {
        "ele": "2100",
        "name": "Gänsebichl - Monte di dentro",
        "name:de": "Gänsebichl",
        "name:it": "Monte di dentro",
        "natural": "peak",
        "source": "http://legacy.lib.utexas.edu/maps/ams/italy_50k/txu-pclmaps-oclc-6540719-campo-di-trens-4a-iv.jpg"
      }
    },
    {
      "type": "node",
      "id": 307309317,
      "lat": 46.9272412,
      "lon": 11.6136178,
      "tags": {
        "ele": "2755",
        "name": "Sandturm - Cima della Rena",
        "name:de": "Sandturm",
        "name:it": "Cima della Rena",
        "natural": "peak"
      }
    },
    {
      "type": "node",
      "id": 307309324,
      "lat": 46.9258676,
      "lon": 11.6177633,
      "tags": {
        "ele": "2719",
        "name": "Sandspitz",
        "natural": "peak"
      }
    },
    {
      "type": "node",
      "id": 307309331,
      "lat": 46.9260047,
      "lon": 11.6230038,
      "tags": {
        "ele": "2787",
        "name": "Rübespitz - Punta Riva",
        "name:de": "Rübespitz",
        "name:it": "Punta Riva",
        "natural": "peak",
        "wikidata": "Q3925713",
        "wikipedia": "it:Punta Riva"
      }
    },
    {
      "type": "node",
      "id": 307309389,
      "lat": 46.8902539,
      "lon": 11.6612458,
      "tags": {
        "ele": "2695",
        "name": "Bretterspitz - Cima di San Paolo",
        "name:de": "Bretterspitz",
        "name:it": "Cima di San Paolo",
        "natural": "peak"
      }
    },
    {
      "type": "node",
      "id": 307309396,
      "lat": 46.8708806,
      "lon": 11.6768288,
      "tags": {
        "ele": "2568",
        "name": "Fallmetzer - Monte Val di Mezzo",
        "name:de": "Fallmetzer",
        "name:it": "Monte Val di Mezzo",
        "natural": "peak"
      }
    },
    {
      "type": "node",
      "id": 307309903,
      "lat": 46.9575211,
      "lon": 11.7360119,
      "tags": {
        "ele": "3263",
        "name": "Niederer Weißzint - Punta Bianca Bassa",
        "name:de": "Niederer Weißzint",
        "name:it": "Punta Bianca Bassa",
        "natural": "peak",
        "wikidata": "Q31670122"
      }
    },
    {
      "type": "node",
      "id": 307309948,
      "lat": 46.9083197,
      "lon": 11.7387718,
      "tags": {
        "ele": "2584",
        "name": "Blauwand",
        "natural": "peak",
        "wikidata": "Q31672501"
      }
    },
    {
      "type": "node",
      "id": 307310170,
      "lat": 46.9885081,
      "lon": 12.0770572,
      "tags": {
        "ele": "2862",
        "name": "Schwarzerspitz",
        "natural": "peak",
        "wikidata": "Q31672077"
      }
    },
    {
      "type": "node",
      "id": 307310194,
      "lat": 46.9523665,
      "lon": 11.8132157,
      "tags": {
        "ele": "2703",
        "name": "Schaflahnernock - Cima delle Pecore",
        "name:de": "Schaflahnernock",
        "name:it": "Cima delle Pecore",
        "natural": "peak",
        "wikidata": "Q3676814",
        "wikipedia": "it:Cima delle Pecore"
      }
    },
    {
      "type": "node",
      "id": 307310206,
      "lat": 46.9457593,
      "lon": 11.8132672,
      "tags": {
        "ele": "2717",
        "name": "Weiße Wand - Croda Bianca",
        "name:de": "Weiße Wand",
        "name:it": "Croda Bianca",
        "natural": "peak",
        "wikidata": "Q31842675",
        "wikipedia": "de:Weiße Wand (Zillertaler Alpen)"
      }
    },
    {
      "type": "node",
      "id": 307310264,
      "lat": 47.0057364,
      "lon": 12.1212338,
      "tags": {
        "ele": "3076",
        "name": "Gabelspitze - Cima di Forca",
        "name:de": "Gabelspitze",
        "name:it": "Cima di Forca",
        "natural": "peak",
        "wikidata": "Q30141315"
      }
    },
    {
      "type": "node",
      "id": 307310376,
      "lat": 47.0079515,
      "lon": 12.1088444,
      "tags": {
        "ele": "2855",
        "name": "Kleiner Alprechtspitz",
        "natural": "peak"
      }
    },
    {
      "type": "node",
      "id": 307310796,
      "lat": 47.0585216,
      "lon": 12.0595056,
      "tags": {
        "ele": "2893",
        "name": "Wagnerschneid Spitz - Cima Triangolo",
        "name:de": "Wagnerschneid Spitz",
        "name:it": "Cima Triangolo",
        "natural": "peak",
        "wikidata": "Q21863817"
      }
    },
    {
      "type": "node",
      "id": 307311105,
      "lat": 47.0691713,
      "lon": 12.240752,
      "tags": {
        "alt_name": "Dreiherrenspitze",
        "alt_name:de": "Dreiherrenspitze",
        "ele": "3499",
        "name": "Dreiherrnspitze",
        "name:de": "Dreiherrnspitze",
        "name:it": "Picco dei Tre Signori",
        "natural": "peak",
        "summit:cross": "yes",
        "wikidata": "Q663943",
        "wikipedia": "de:Dreiherrnspitze"
      }
    },
    {
      "type": "node",
      "id": 308038216,
      "lat": 46.6444985,
      "lon": 12.2126758,
      "tags": {
        "ele": "2307",
        "man_made": "cross",
        "name": "Strudelkopf - Monte Specie",
        "name:de": "Strudelkopf",
        "name:it": "Monte Specie",
        "natural": "peak",
        "source": "South-Tyrol-Topomap",
        "summit:cross": "yes",
        "summit:register": "yes",
        "wikidata": "Q16579693",
        "wikipedia": "it:Monte Specie"
      }
    },
    {
      "type": "node",
      "id": 309337907,
      "lat": 45.7436033,
      "lon": 11.09489,
      "tags": {
        "ele": "2020",
        "name": "Cima Levante",
        "natural": "peak",
        "wikidata": "Q31640361"
      }
    },
    {
      "type": "node",
      "id": 309389245,
      "lat": 46.7060986,
      "lon": 11.5006501,
      "tags": {
        "ele": "2528",
        "name": "Ritzlar",
        "natural": "peak",
        "summit:cross": "yes"
      }
    },
    {
      "type": "node",
      "id": 309409134,
      "lat": 45.7538581,
      "lon": 11.1987489,
      "tags": {
        "ele": "1220",
        "loc_name": "Sojo del Can",
        "name": "Monte Castelliero",
        "natural": "peak"
      }
    },
    {
      "type": "node",
      "id": 309514870,
      "lat": 45.7994036,
      "lon": 11.068885,
      "tags": {
        "ele": "1857",
        "name": "Monte Zugna",
        "natural": "peak",
        "summit:cross": "yes",
        "wikidata": "Q31638098"
      }
    },
    {
      "type": "node",
      "id": 310199149,
      "lat": 45.9201274,
      "lon": 10.9636915,
      "tags": {
        "ele": "2054",
        "name": "Monte Stivo",
        "natural": "peak",
        "summit:cross": "yes",
        "summit:register": "yes",
        "wikidata": "Q1945934",
        "wikipedia": "it:Monte Stivo"
      }
    },
    {
      "type": "node",
      "id": 310254771,
      "lat": 46.5730683,
      "lon": 10.9974588,
      "tags": {
        "ele": "2365",
        "name": "Hochjoch",
        "natural": "peak",
        "summit:cross": "yes"
      }
    },
    {
      "type": "node",
      "id": 310256076,
      "lat": 46.5917879,
      "lon": 10.9975409,
      "tags": {
        "ele": "2444",
        "name": "Kreuzknöttler",
        "natural": "peak"
      }
    },
    {
      "type": "node",
      "id": 310256077,
      "lat": 46.5765777,
      "lon": 10.9568874,
      "tags": {
        "ele": "2737",
        "name": "Muttegrub",
        "natural": "peak",
        "source": "http://www.seilschaft.it/zz%20aa1%20gran%20ladro.htm"
      }
    },
    {
      "type": "node",
      "id": 310256078,
      "lat": 46.5688002,
      "lon": 10.9816986,
      "tags": {
        "ele": "2542",
        "name": "Peilstein - Il Sasso",
        "name:de": "Peilstein",
        "name:it": "Il Sasso",
        "natural": "peak",
        "source": "http://www.ultental-valdultimo.com/escursioni/alta-via-valcomai.html"
      }
    },
    {
      "type": "node",
      "id": 310256079,
      "lat": 46.5797025,
      "lon": 10.9671826,
      "tags": {
        "ele": "2711",
        "name": "Rontscher - Monte dei Romici",
        "name:de": "Rontscher",
        "name:it": "Monte dei Romici",
        "natural": "peak",
        "source": "http://www.ultental-valdultimo.com/escursioni/alta-via-valcomai.html"
      }
    },
    {
      "type": "node",
      "id": 310256080,
      "lat": 46.5858702,
      "lon": 10.9886147,
      "tags": {
        "ele": "2616",
        "loc_name": "Moarkuk",
        "name": "Schwarze",
        "natural": "peak",
        "reg_name": "Schwarzer"
      }
    },
    {
      "type": "node",
      "id": 310262611,
      "lat": 46.7018971,
      "lon": 11.0699112,
      "tags": {
        "ele": "1808",
        "name": "Hohe Wiege - Culla Alta",
        "name:de": "Hohe Wiege",
        "name:it": "Culla Alta",
        "natural": "peak",
        "source": "GPS"
      }
    },
    {
      "type": "node",
      "id": 310263098,
      "lat": 46.69272,
      "lon": 11.0131649,
      "tags": {
        "ele": "3008",
        "name": "Zielspitze - Cima di Tel",
        "name:de": "Zielspitze",
        "name:it": "Cima di Tel",
        "natural": "peak",
        "source": "https://www.sentres.com/it/trekking/trekking-per-la-cima-di-tel-zielspitze",
        "summit:cross": "yes",
        "wikidata": "Q28090318"
      }
    },
    {
      "type": "node",
      "id": 310438852,
      "lat": 46.671166,
      "lon": 10.8923178,
      "tags": {
        "ele": "2914",
        "name": "Trumsspitze - Punta di Trumes",
        "name:de": "Trumsspitze",
        "name:it": "Punta di Trumes",
        "natural": "peak"
      }
    },
    {
      "type": "node",
      "id": 310438853,
      "lat": 46.6665677,
      "lon": 10.8874738,
      "tags": {
        "ele": "2899",
        "name": "Kleingrubspitz",
        "natural": "peak"
      }
    },
    {
      "type": "node",
      "id": 310461410,
      "lat": 46.7346823,
      "lon": 10.8802322,
      "tags": {
        "ele": "2815",
        "name": "Schröfwand",
        "natural": "peak"
      }
    },